Type,Units,Time,X Position,Y Position,Y Encoder,Z Position,Z Encoder,Yaw,Pitch,WAFBC Drag,WAFBC Side,WAFBC Lift,WAFBC Roll,WAFBC Pitch,WAFBC Yaw,WAFMC Drag,WAFMC Side,WAFMC Lift,WAFMC Roll,WAFMC Pitch,WAFMC Yaw,BAFMC Axial,BAFMC Side,BAFMC Normal,BAFMC Roll,BAFMC Pitch,BAFMC Yaw,DPT250,DPT251,PT250,TE250,Velocity,Dynamic Pressure,Mach,Reynolds Number per ft,Velocity Setpoint,Temperature Setpoint,cDAQ AI0,cDAQ AI1,cDAQ AI2,cDAQ AI3,cDAQ AI4,cDAQ AI5,cDAQ AI6,cDAQ AI7,cRIO AI0,cRIO AI1,cRIO AI2,cRIO AI3,Drag (raw),Side (raw),Lift (raw),Roll (raw),Pitch (raw),Yaw (raw)
Type,USC / SI,Time,Inches / Millimeters,Inches / Millimeters,Inches / Millimeters,Inches / Millimeters,Inches / Millimeters,Degrees / Degrees,Degrees / Degrees,lb / N,lb / N,lb / N,ft-lb / N-m,ft-lb / N-m,ft-lb / N-m,lb / N,lb / N,lb / N,ft-lb / N-m,ft-lb / N-m,ft-lb / N-m,lb / N,lb / N,lb / N,ft-lb / N-m,ft-lb / N-m,ft-lb / N-m,PSId / Pascals,PSId / Pascals,PSIa / Pascals,F / F,Ft/s / m/s,PSId / Pascals, / ,1/ft / 1/ft,ft/s / m/s,F / F, / , / , / , / , / , / , / , / , / , / , / , / , / , / , / , / , / , / 
Sing,USC,240318 11:23:30.672, 0.000000, 0.000000, 0.000000, 0.000000,-0.000079,-0.000001,-4.000020, 0.121104,-0.130393, 0.009188, 0.344787,-0.362842, 0.229536, 0.121104,-0.130393, 0.009188, 0.344787,-0.362842, 0.229536, 0.121450,-0.130393, 0.000717, 0.359959,-0.362842, 0.204926, 0.000000, 0.000000,14.589080,71.697912, 0.000000, 0.000000, 0.000000, 0.000000, 0.008236,71.697912,-0.000000,-0.000000,-0.000000,-0.000000,-0.000000,-0.000000,-0.000000,-0.000000, 0.985554,-0.002921, 0.001676, 0.007335,-0.000800,,,,,
Sing,USC,240318 11:23:48.984, 0.000000, 0.000000, 0.000000, 0.000000,-0.000079,-0.000001,-1.999980,-0.048838, 0.046199, 0.092367, 0.000781,-0.095300,-0.014072,-0.048838, 0.046199, 0.092367, 0.000781,-0.095300,-0.014072,-0.045585, 0.046199, 0.094015, 0.000289,-0.095300,-0.014090, 0.000000, 0.000000,14.591443,71.697520, 0.000000, 0.000000, 0.000000, 0.000000, 0.000000,71.697533,-0.000000,-0.000000,-0.000000,-0.000000,-0.000000,-0.000000,-0.000000,-0.000000, 0.986764,-0.002968, 0.001722, 0.009856, 0.000302,,,,,
Sing,USC,240318 11:24:07.278, 0.000000, 0.000000, 0.000000, 0.000000,-0.000079,-0.000001,-0.000015,-0.067977, 0.180930, 0.014529,-0.291981, 0.058126,-0.199198,-0.067977, 0.180930, 0.014529,-0.291981, 0.058126,-0.199198,-0.067977, 0.180930, 0.014529,-0.291981, 0.058126,-0.199198, 0.000000, 0.000005,14.588819,71.697428, 0.022624, 0.000000, 0.000020,136.834150, 0.022626,71.697382,-0.000000,-0.000000,-0.000000,-0.000000,-0.000000,-0.000000,-0.000000,-0.000000, 0.982157,-0.002954, 0.001724, 0.008302, 0.000394,,,,,
Sing,USC,240318 11:24:25.574, 0.000000, 0.000000, 0.000000, 0.000000,-0.000079,-0.000001, 2.000009,-0.020222, 0.229686, 0.105308,-0.380635,-0.181069,-0.254398,-0.020222, 0.229686, 0.105308,-0.380635,-0.181069,-0.254398,-0.023884, 0.229686, 0.104538,-0.371525,-0.181069,-0.267527, 0.000000, 0.000000,14.587337,71.696987, 0.000000, 0.000000, 0.000000, 0.000000, 0.000000,71.696967,-0.000000,-0.000000,-0.000000,-0.000000,-0.000000,-0.000000,-0.000000,-0.000000, 0.984908,-0.002965, 0.001727, 0.010011, 0.000060,,,,,
Sing,USC,240318 11:24:44.173, 0.000000, 0.000000, 0.000000, 0.000000,-0.000079,-0.000001, 3.999980, 0.094816, 0.183984, 0.149428,-0.290198,-0.483161,-0.203029, 0.094816, 0.183984, 0.149428,-0.290198,-0.483161,-0.203029, 0.084162, 0.183984, 0.155679,-0.275329,-0.483161,-0.222777, 0.000000, 0.000001,14.590046,71.696031, 0.000000, 0.000000, 0.000000, 0.000000, 0.000000,71.696009,-0.000000,-0.000000,-0.000000,-0.000000,-0.000000,-0.000000,-0.000000,-0.000000, 0.980372,-0.002975, 0.001746, 0.010028,-0.000696,,,,,
Sing,USC,240318 11:25:02.472, 0.000000, 0.000000, 0.000000, 0.000000,-0.000079,-0.000001, 6.000020, 0.151293, 0.197833, 0.049729,-0.317254,-0.483338,-0.217537, 0.151293, 0.197833, 0.049729,-0.317254,-0.483338,-0.217537, 0.145266, 0.197833, 0.065272,-0.292777,-0.483338,-0.249508, 0.000000, 0.000000,14.590099,71.696111, 0.011146, 0.000000, 0.000010,67.414990, 0.022291,71.696133,-0.000000,-0.000000,-0.000000,-0.000000,-0.000000,-0.000000,-0.000000,-0.000000, 0.982783,-0.003001, 0.001733, 0.009214,-0.001077,,,,,
Sing,USC,240318 11:25:20.877, 0.000000, 0.000000, 0.000000, 0.000000,-0.000079,-0.000001, 7.999992, 0.192425, 0.223354, 0.141157,-0.392896,-0.735575,-0.262362, 0.192425, 0.223354, 0.141157,-0.392896,-0.735575,-0.262362, 0.170907, 0.223354, 0.166564,-0.352559,-0.735575,-0.314490, 0.000000, 0.000000,14.588870,71.694860, 0.013803, 0.000000, 0.000012,83.484658, 0.000000,71.694843,-0.000000,-0.000000,-0.000000,-0.000000,-0.000000,-0.000000,-0.000000,-0.000000, 0.979229,-0.002952, 0.001717, 0.008530,-0.001360,,,,,
Sing,USC,240318 11:25:39.276, 0.000000, 0.000000, 0.000000, 0.000000,-0.000079,-0.000001, 9.999959, 0.219454, 0.236306, 0.153633,-0.419090,-0.859122,-0.279561, 0.219454, 0.236306, 0.153633,-0.419090,-0.859122,-0.279561, 0.189442, 0.236306, 0.189407,-0.364178,-0.859122,-0.348088, 0.000000, 0.000003,14.590631,71.694570, 0.009243, 0.000000, 0.000008,55.910645, 0.000000,71.694595,-0.000000,-0.000000,-0.000000,-0.000000,-0.000000,-0.000000,-0.000000,-0.000000, 0.984745,-0.002940, 0.001752, 0.008271,-0.001545,,,,,
Sing,USC,240318 11:25:57.475, 0.000000, 0.000000, 0.000000, 0.000000,-0.000079,-0.000001,12.000025, 0.282311, 0.230940, 0.128934,-0.395097,-1.018781,-0.269942, 0.282311, 0.230940, 0.128934,-0.395097,-1.018781,-0.269942, 0.249335, 0.230940, 0.184812,-0.330339,-1.018781,-0.346189, 0.000000, 0.000001,14.592201,71.694277, 0.027536, 0.000000, 0.000024,166.589282, 0.028043,71.694296,-0.000000,-0.000000,-0.000000,-0.000000,-0.000000,-0.000000,-0.000000,-0.000000, 0.984831,-0.003009, 0.001712, 0.011029,-0.001964,,,,,
Sing,USC,240318 11:26:15.775, 0.000000, 0.000000, 0.000000, 0.000000,-0.000079,-0.000001,14.000003, 0.365987, 0.166447, 0.141333,-0.273371,-1.302237,-0.186362, 0.365987, 0.166447, 0.141333,-0.273371,-1.302237,-0.186362, 0.320924, 0.166447, 0.225675,-0.220165,-1.302237,-0.246961, 0.000000, 0.000000,14.591657,71.692990, 0.001686, 0.000000, 0.000001,10.199918, 0.003373,71.693004,-0.000000,-0.000000,-0.000000,-0.000000,-0.000000,-0.000000,-0.000000,-0.000000, 0.982513,-0.002959, 0.001755, 0.009762,-0.002505,,,,,
Sing,USC,240318 11:26:34.077, 0.000000, 0.000000, 0.000000, 0.000000,-0.000079,-0.000001,15.999974, 0.560477, 0.137656, 0.165402,-0.210961,-1.812396,-0.145648, 0.560477, 0.137656, 0.165402,-0.210961,-1.812396,-0.145648, 0.493174, 0.137656, 0.313483,-0.162643,-1.812396,-0.198155, 0.000000, 0.000004,14.589921,71.692852, 0.012047, 0.000000, 0.000011,72.858809, 0.024093,71.692860,-0.000000,-0.000000,-0.000000,-0.000000,-0.000000,-0.000000,-0.000000,-0.000000, 0.980659,-0.002932, 0.001745, 0.009367,-0.003796,,,,,
Sing,USC,240318 11:26:52.376, 0.000000, 0.000000, 0.000000, 0.000000,-0.000079,-0.000001,18.000033, 0.779126, 0.299062, 0.160534,-0.562437,-2.362730,-0.352528, 0.779126, 0.299062, 0.160534,-0.562437,-2.362730,-0.352528, 0.691385, 0.299062, 0.393441,-0.425972,-2.362730,-0.509077, 0.000000, 0.000004,14.588180,71.692324, 0.000000, 0.000000, 0.000000, 0.000000, 0.000000,71.692319,-0.000000,-0.000000,-0.000000,-0.000000,-0.000000,-0.000000,-0.000000,-0.000000, 0.985004,-0.002888, 0.001734, 0.008390,-0.005303,,,,,
Sing,USC,240318 11:27:10.773, 0.000000, 0.000000, 0.000000, 0.000000,-0.000079,-0.000001,20.000019, 0.902174, 0.426799, 0.264251,-0.819781,-2.849637,-0.506603, 0.902174, 0.426799, 0.264251,-0.819781,-2.849637,-0.506603, 0.757387, 0.426799, 0.556876,-0.597073,-2.849637,-0.756433, 0.000000, 0.000002,14.586039,71.691949, 0.000000, 0.000000, 0.000000, 0.000000, 0.000000,71.691960,-0.000000,-0.000000,-0.000000,-0.000000,-0.000000,-0.000000,-0.000000,-0.000000, 0.985690,-0.002997, 0.001781, 0.008570,-0.006163,,,,,
Sing,USC,240318 11:27:29.172, 0.000000, 0.000000, 0.000000, 0.000000,-0.000079,-0.000001,22.000013, 0.901627, 0.466954, 0.345080,-0.889238,-3.076934,-0.541573, 0.901627, 0.466954, 0.345080,-0.889238,-3.076934,-0.541573, 0.706705, 0.466954, 0.657708,-0.621610,-3.076934,-0.835252, 0.000000, 0.000002,14.587033,71.692584, 0.000000, 0.000000, 0.000000, 0.000000, 0.000000,71.692545,-0.000000,-0.000000,-0.000000,-0.000000,-0.000000,-0.000000,-0.000000,-0.000000, 0.982966,-0.002946, 0.001775, 0.010646,-0.006173,,,,,
Sing,USC,240318 11:27:47.378, 0.000000, 0.000000, 0.000000, 0.000000,-0.000079,-0.000001,24.000028, 0.870376, 0.474593, 0.334746,-0.910216,-3.140622,-0.541529, 0.870376, 0.474593, 0.334746,-0.910216,-3.140622,-0.541529, 0.658974, 0.474593, 0.659820,-0.611263,-3.140622,-0.864930, 0.000000, 0.000001,14.586283,71.691874, 0.018746, 0.000000, 0.000017,113.344657, 0.003385,71.691907,-0.000000,-0.000000,-0.000000,-0.000000,-0.000000,-0.000000,-0.000000,-0.000000, 0.984407,-0.002941, 0.001720, 0.010394,-0.005966,,,,,
Sing,USC,240318 11:28:05.775, 0.000000, 0.000000, 0.000000, 0.000000,-0.000079,-0.000001,25.999999, 0.780969, 0.388779, 0.319101,-0.723016,-3.098893,-0.429827, 0.780969, 0.388779, 0.319101,-0.723016,-3.098893,-0.429827, 0.562046, 0.388779, 0.629160,-0.461419,-3.098893,-0.703275, 0.000000, 0.000000,14.587940,71.691904, 0.020029, 0.000000, 0.000018,121.090615, 0.011254,71.691902,-0.000000,-0.000000,-0.000000,-0.000000,-0.000000,-0.000000,-0.000000,-0.000000, 0.985053,-0.002916, 0.001763, 0.011480,-0.005345,,,,,
Sing,USC,240318 11:28:24.177, 0.000000, 0.000000, 0.000000, 0.000000,-0.000079,-0.000001,28.000028, 0.744502, 0.339023, 0.276819,-0.603294,-3.123367,-0.352033, 0.744502, 0.339023, 0.276819,-0.603294,-3.123367,-0.352033, 0.527397, 0.339023, 0.593939,-0.367407,-3.123367,-0.594056, 0.000000, 0.000001,14.588946,71.692280, 0.000000, 0.000000, 0.000000, 0.000000, 0.000000,71.692313,-0.000000,-0.000000,-0.000000,-0.000000,-0.000000,-0.000000,-0.000000,-0.000000, 0.980673,-0.002914, 0.001781, 0.011202,-0.005087,,,,,
Sing,USC,240318 11:28:42.376, 0.000000, 0.000000, 0.000000, 0.000000,-0.000079,-0.000001,30.000022, 0.719391, 0.314982, 0.273907,-0.561388,-3.233139,-0.312968, 0.719391, 0.314982, 0.273907,-0.561388,-3.233139,-0.312968, 0.486057, 0.314982, 0.596907,-0.329692,-3.233139,-0.551733, 0.000000, 0.000000,14.587058,71.691830, 0.026901, 0.000000, 0.000024,162.678696, 0.000000,71.691786,-0.000000,-0.000000,-0.000000,-0.000000,-0.000000,-0.000000,-0.000000,-0.000000, 0.986007,-0.002960, 0.001758, 0.011136,-0.004913,,,,,
Sing,USC,240318 11:29:00.776, 0.000000, 0.000000, 0.000000, 0.000000,-0.000079,-0.000001,31.999991, 0.635690, 0.302606, 0.194279,-0.545271,-3.140012,-0.296484, 0.635690, 0.302606, 0.194279,-0.545271,-3.140012,-0.296484, 0.436144, 0.302606, 0.501622,-0.305304,-3.140012,-0.540383, 0.000000, 0.000000,14.586663,71.691722, 0.000000, 0.000000, 0.000000, 0.000000, 0.000000,71.691755,-0.000000,-0.000000,-0.000000,-0.000000,-0.000000,-0.000000,-0.000000,-0.000000, 0.982576,-0.002915, 0.001787, 0.011309,-0.004351,,,,,
Sing,USC,240318 11:29:18.976, 0.000000, 0.000000, 0.000000, 0.000000,-0.000079,-0.000001,34.000036, 0.969743, 0.360724, 0.299628,-0.679119,-4.153677,-0.360115, 0.969743, 0.360724, 0.299628,-0.679119,-4.153677,-0.360115, 0.636403, 0.360724, 0.790677,-0.361641,-4.153677,-0.678308, 0.000000, 0.000002,14.587380,71.692134, 0.000000, 0.000000, 0.000000, 0.000000, 0.000000,71.692073,-0.000000,-0.000000,-0.000000,-0.000000,-0.000000,-0.000000,-0.000000,-0.000000, 0.984895,-0.002971, 0.001770, 0.011961,-0.006600,,,,,
