Type,Units,Time,X Position,Y Position,Y Encoder,Z Position,Z Encoder,Yaw,Pitch,WAFBC Drag,WAFBC Side,WAFBC Lift,WAFBC Roll,WAFBC Pitch,WAFBC Yaw,WAFMC Drag,WAFMC Side,WAFMC Lift,WAFMC Roll,WAFMC Pitch,WAFMC Yaw,BAFMC Axial,BAFMC Side,BAFMC Normal,BAFMC Roll,BAFMC Pitch,BAFMC Yaw,DPT250,DPT251,PT250,TE250,Velocity,Dynamic Pressure,Mach,Reynolds Number per ft,Velocity Setpoint,Temperature Setpoint,cDAQ AI0,cDAQ AI1,cDAQ AI2,cDAQ AI3,cDAQ AI4,cDAQ AI5,cDAQ AI6,cDAQ AI7,cRIO AI0,cRIO AI1,cRIO AI2,cRIO AI3,Drag (raw),Side (raw),Lift (raw),Roll (raw),Pitch (raw),Yaw (raw)
Type,USC / SI,Time,Inches / Millimeters,Inches / Millimeters,Inches / Millimeters,Inches / Millimeters,Inches / Millimeters,Degrees / Degrees,Degrees / Degrees,lb / N,lb / N,lb / N,ft-lb / N-m,ft-lb / N-m,ft-lb / N-m,lb / N,lb / N,lb / N,ft-lb / N-m,ft-lb / N-m,ft-lb / N-m,lb / N,lb / N,lb / N,ft-lb / N-m,ft-lb / N-m,ft-lb / N-m,PSId / Pascals,PSId / Pascals,PSIa / Pascals,F / F,Ft/s / m/s,PSId / Pascals, / ,1/ft / 1/ft,ft/s / m/s,F / F, / , / , / , / , / , / , / , / , / , / , / , / , / , / , / , / , / , / 
Sing,USC,240318 12:16:59.659, 0.000000, 0.000000, 0.000000, 0.000000,-0.000118, 9.999997,-4.000027, 1.850026, 1.099885,-4.895357,-0.580905,-0.176495,-0.124952, 1.850026, 1.099885,-4.895357,-0.580905,-0.176495,-0.124952, 1.285469, 1.404429,-4.997200,-0.548830,-0.274688,-0.086879, 0.044907, 0.044714,14.599936,68.794720,74.949887, 0.045206, 0.066507,458050.346875,75.000000,71.802585,-0.000000,-0.000000,-0.000000,-0.000000,-0.000000,-0.000000,-0.000000,-0.000000, 0.984561,-0.002952, 0.001670, 0.008560,-0.013173,,,,,
Sing,USC,240318 12:17:18.364, 0.000000, 0.000000, 0.000000, 0.000000,-0.000118, 9.999998,-1.999965, 1.608516, 1.095608,-3.811386,-0.504206,-0.062986,-0.065453, 1.608516, 1.095608,-3.811386,-0.504206,-0.062986,-0.065453, 1.259967, 1.358279,-3.857708,-0.487597,-0.149584,-0.048465, 0.045044, 0.044829,14.600780,68.764284,75.056352, 0.045338, 0.066603,458760.408750,75.000000,71.802585,-0.000000,-0.000000,-0.000000,-0.000000,-0.000000,-0.000000,-0.000000,-0.000000, 0.981583,-0.002932, 0.001633, 0.009611,-0.010724,,,,,
Sing,USC,240318 12:17:37.060, 0.000000, 0.000000, 0.000000, 0.000000,-0.000118, 9.999998, 0.000029, 1.450308, 1.115753,-2.736076,-0.482168, 0.097055,-0.066687, 1.450308, 1.115753,-2.736076,-0.482168, 0.097055,-0.066687, 1.234528, 1.350646,-2.736075,-0.491697, 0.011853,-0.066687, 0.045058, 0.044878,14.600022,68.735973,75.064332, 0.045347, 0.066612,458816.428750,75.000000,71.802585,-0.000000,-0.000000,-0.000000,-0.000000,-0.000000,-0.000000,-0.000000,-0.000000, 0.986208,-0.002928, 0.001675, 0.009200,-0.009683,,,,,
Sing,USC,240318 12:17:55.762, 0.000000, 0.000000, 0.000000, 0.000000,-0.000118, 9.999998, 2.000015, 1.346302, 1.161016,-1.699002,-0.502507, 0.273631,-0.109783, 1.346302, 1.161016,-1.699002,-0.502507, 0.273631,-0.109783, 1.182851, 1.377161,-1.658731,-0.538226, 0.182214,-0.128645, 0.044993, 0.044763,14.598764,68.709443,75.014714, 0.045286, 0.066570,458525.051563,75.000000,71.802585,-0.000000,-0.000000,-0.000000,-0.000000,-0.000000,-0.000000,-0.000000,-0.000000, 0.980719,-0.002913, 0.001683, 0.009277,-0.009609,,,,,
Sing,USC,240318 12:18:14.464, 0.000000, 0.000000, 0.000000, 0.000000,-0.000118, 9.999998, 3.999963, 1.271109, 1.110727,-0.552761,-0.335773, 0.434773,-0.048266, 1.271109, 1.110727,-0.552761,-0.335773, 0.434773,-0.048266, 1.094901, 1.314578,-0.477548,-0.401813, 0.369861,-0.076482, 0.044986, 0.044722,14.597805,68.684288,75.007013, 0.045277, 0.066564,458492.796250,75.000000,71.802585,-0.000000,-0.000000,-0.000000,-0.000000,-0.000000,-0.000000,-0.000000,-0.000000, 0.983055,-0.002943, 0.001729, 0.009263,-0.009788,,,,,
Sing,USC,240318 12:18:33.172, 0.000000, 0.000000, 0.000000, 0.000000,-0.000118, 9.999997, 6.000026, 1.240306, 1.039426, 0.651764,-0.132157, 0.536140, 0.016688, 1.240306, 1.039426, 0.651764,-0.132157, 0.536140, 0.016688, 0.967138, 1.239012, 0.757006,-0.223771, 0.505047,-0.006739, 0.044992, 0.044748,14.599655,68.658982,75.004752, 0.045285, 0.066564,458601.793438,75.000000,71.802585,-0.000000,-0.000000,-0.000000,-0.000000,-0.000000,-0.000000,-0.000000,-0.000000, 0.985394,-0.002890, 0.001674, 0.009152,-0.009998,,,,,
Sing,USC,240318 12:18:51.990, 0.000000, 0.000000, 0.000000, 0.000000,-0.000118, 9.999998, 7.999997, 1.239823, 0.987205, 1.771418,-0.013671, 0.738951, 0.046813, 1.239823, 0.987205, 1.771418,-0.013671, 0.738951, 0.046813, 0.792813, 1.187500, 1.900250,-0.146916, 0.725350, 0.026625, 0.044935, 0.044668,14.600002,68.637741,74.955817, 0.045225, 0.066522,458311.646875,75.000000,71.802585,-0.000000,-0.000000,-0.000000,-0.000000,-0.000000,-0.000000,-0.000000,-0.000000, 0.985552,-0.002909, 0.001714, 0.009195,-0.010409,,,,,
Sing,USC,240318 12:19:10.773, 0.000000, 0.000000, 0.000000, 0.000000,-0.000118, 9.999998, 9.999958, 1.313729, 0.878305, 2.917023, 0.132776, 0.952719, 0.134283, 1.313729, 0.878305, 2.917023, 0.132776, 0.952719, 0.134283, 0.617384, 1.093088, 3.070884,-0.057471, 0.961301, 0.126220, 0.044844, 0.044591,14.597191,68.614812,74.890245, 0.045141, 0.066465,457873.856563,75.000000,71.802585,-0.000000,-0.000000,-0.000000,-0.000000,-0.000000,-0.000000,-0.000000,-0.000000, 0.987438,-0.002925, 0.001715, 0.007460,-0.011069,,,,,
Sing,USC,240318 12:19:29.375, 0.000000, 0.000000, 0.000000, 0.000000,-0.000118, 9.999998,12.000019, 1.521595, 0.779668, 4.196662, 0.198438, 1.020728, 0.210379, 1.521595, 0.779668, 4.196662, 0.198438, 1.020728, 0.210379, 0.460768, 1.032045, 4.388358,-0.025962, 1.039679, 0.209561, 0.044715, 0.044505,14.599328,68.590400,74.773608, 0.045008, 0.066363,457251.428125,75.000000,71.802585,-0.000000,-0.000000,-0.000000,-0.000000,-0.000000,-0.000000,-0.000000,-0.000000, 0.981926,-0.002985, 0.001681, 0.008855,-0.012589,,,,,
Sing,USC,240318 12:19:48.060, 0.000000, 0.000000, 0.000000, 0.000000,-0.000118, 9.999998,14.000004, 1.754451, 0.633512, 5.429830, 0.297680, 1.168161, 0.312584, 1.754451, 0.633512, 5.429830, 0.297680, 1.168161, 0.312584, 0.256138, 0.928544, 5.659920, 0.012006, 1.202105, 0.325146, 0.044659, 0.044465,14.598295,68.569080,74.726633, 0.044949, 0.066323,456955.719375,75.000000,71.802585,-0.000000,-0.000000,-0.000000,-0.000000,-0.000000,-0.000000,-0.000000,-0.000000, 0.978123,-0.002971, 0.001737, 0.011006,-0.014761,,,,,
Sing,USC,240318 12:20:06.565, 0.000000, 0.000000, 0.000000, 0.000000,-0.000118, 9.999997,15.999998, 2.109716, 0.517088, 6.710558, 0.214551, 1.371871, 0.307400, 2.109716, 0.517088, 6.710558, 0.214551, 1.371871, 0.307400, 0.061187, 0.875580, 6.998534,-0.110620, 1.388286, 0.288068, 0.044684, 0.044558,14.598279,68.548489,74.736724, 0.044963, 0.066333,457054.443750,75.000000,71.802585,-0.000000,-0.000000,-0.000000,-0.000000,-0.000000,-0.000000,-0.000000,-0.000000, 0.975453,-0.003010, 0.001750, 0.008458,-0.018252,,,,,
Sing,USC,240318 12:20:25.263, 0.000000, 0.000000, 0.000000, 0.000000,-0.000118, 9.999998,18.000032, 2.584880, 0.417607, 7.936723, 0.059579, 1.618334, 0.260241, 2.584880, 0.417607, 7.936723, 0.059579, 1.618334, 0.260241,-0.100535, 0.860121, 8.312500,-0.291883, 1.604093, 0.178795, 0.044725, 0.044452,14.599059,68.528168,74.777514, 0.045016, 0.066371,457352.903438,75.000000,71.802585,-0.000000,-0.000000,-0.000000,-0.000000,-0.000000,-0.000000,-0.000000,-0.000000, 0.982288,-0.002960, 0.001720, 0.006176,-0.023225,,,,,
Sing,USC,240318 12:20:43.769, 0.000000, 0.000000, 0.000000, 0.000000,-0.000118, 9.999997,20.000018, 3.261242, 0.232028, 8.977863,-0.107786, 1.552721, 0.253943, 3.261242, 0.232028, 8.977863,-0.107786, 1.552721, 0.253943,-0.090467, 0.794811, 9.521116,-0.439966, 1.510415, 0.110106, 0.044687, 0.044465,14.597974,68.507859,74.744367, 0.044977, 0.066342,457171.599375,75.000000,71.802585,-0.000000,-0.000000,-0.000000,-0.000000,-0.000000,-0.000000,-0.000000,-0.000000, 0.980095,-0.003002, 0.001667, 0.006872,-0.028323,,,,,
Sing,USC,240318 12:21:02.465, 0.000000, 0.000000, 0.000000, 0.000000,-0.000118, 9.999998,22.000023, 3.990042, 0.015652, 9.871811,-0.402816, 1.454820, 0.216685, 3.990042, 0.015652, 9.871811,-0.402816, 1.454820, 0.216685,-0.057270, 0.708277,10.623953,-0.683214, 1.362769,-0.042334, 0.044659, 0.044480,14.598777,68.484333,74.717389, 0.044948, 0.066320,457063.139375,75.000000,71.802585,-0.000000,-0.000000,-0.000000,-0.000000,-0.000000,-0.000000,-0.000000,-0.000000, 0.982415,-0.002969, 0.001656, 0.007399,-0.033101,,,,,
Sing,USC,240318 12:21:20.967, 0.000000, 0.000000, 0.000000, 0.000000,-0.000118, 9.999998,24.000027, 4.670355,-0.160024,10.496776,-0.673758, 1.510581, 0.356898, 4.670355,-0.160024,10.496776,-0.673758, 1.510581, 0.356898,-0.042280, 0.653406,11.471329,-0.990952, 1.370635,-0.050528, 0.044435, 0.044184,14.598812,68.465785,74.528546, 0.044721, 0.066153,455920.236250,75.000000,71.802585,-0.000000,-0.000000,-0.000000,-0.000000,-0.000000,-0.000000,-0.000000,-0.000000, 0.989850,-0.002945, 0.001655, 0.007789,-0.037444,,,,,
Sing,USC,240318 12:21:39.659, 0.000000, 0.000000, 0.000000, 0.000000,-0.000118, 9.999997,26.000006, 5.412833, 0.019465,10.949202,-1.485533, 1.715401, 0.215996, 5.412833, 0.019465,10.949202,-1.485533, 1.715401, 0.215996,-0.011742, 0.959098,12.176377,-1.677319, 1.431380,-0.577766, 0.044517, 0.044332,14.597675,68.448212,74.601488, 0.044810, 0.066219,456387.122812,75.000000,71.802585,-0.000000,-0.000000,-0.000000,-0.000000,-0.000000,-0.000000,-0.000000,-0.000000, 0.981764,-0.002935, 0.001715, 0.008248,-0.041741,,,,,
Sing,USC,240318 12:21:58.163, 0.000000, 0.000000, 0.000000, 0.000000,-0.000118, 9.999998,27.999957, 6.175653,-0.035016,11.506976,-1.701690, 1.831175, 0.413532, 6.175653,-0.035016,11.506976,-1.701690, 1.831175, 0.413532,-0.026880, 1.037906,13.018157,-1.954580, 1.507860,-0.570910, 0.044485, 0.044275,14.597561,68.432377,74.577559, 0.044779, 0.066199,456229.301250,75.000000,71.802585,-0.000000,-0.000000,-0.000000,-0.000000,-0.000000,-0.000000,-0.000000,-0.000000, 0.983830,-0.002898, 0.001721, 0.007094,-0.046749,,,,,
Sing,USC,240318 12:22:16.661, 0.000000, 0.000000, 0.000000, 0.000000,-0.000118, 9.999998,30.000025, 6.976882,-0.043737,12.059088,-1.795187, 2.002469, 0.555244, 6.976882,-0.043737,12.059088,-1.795187, 2.002469, 0.555244,-0.072610, 1.168450,13.882718,-2.109820, 1.660316,-0.576965, 0.044603, 0.044356,14.598506,68.419273,74.664100, 0.044891, 0.066277,456850.622812,75.000000,71.802585,-0.000000,-0.000000,-0.000000,-0.000000,-0.000000,-0.000000,-0.000000,-0.000000, 0.983388,-0.002930, 0.001754, 0.008352,-0.051904,,,,,
Sing,USC,240318 12:22:35.358, 0.000000, 0.000000, 0.000000, 0.000000,-0.000118, 9.999998,32.000015, 7.836112,-0.070787,12.594742,-1.807608, 2.194444, 0.659258, 7.836112,-0.070787,12.594742,-1.807608, 2.194444, 0.659258,-0.119335, 1.291015,14.776881,-2.182161, 1.847217,-0.586183, 0.044507, 0.044329,14.598853,68.407146,74.588771, 0.044800, 0.066211,456393.098438,75.000000,71.802585,-0.000000,-0.000000,-0.000000,-0.000000,-0.000000,-0.000000,-0.000000,-0.000000, 0.981679,-0.002897, 0.001692, 0.007452,-0.057050,,,,,
Sing,USC,240318 12:22:53.861, 0.000000, 0.000000, 0.000000, 0.000000,-0.000118, 9.999998,34.000021, 8.647751,-0.015271,12.979034,-1.965811, 2.366944, 0.685345, 8.647751,-0.015271,12.979034,-1.965811, 2.366944, 0.685345,-0.195198, 1.486627,15.523884,-2.328958, 1.989625,-0.744228, 0.044506, 0.044311,14.599451,68.397686,74.578953, 0.044791, 0.066202,456366.423750,75.000000,71.802585,-0.000000,-0.000000,-0.000000,-0.000000,-0.000000,-0.000000,-0.000000,-0.000000, 0.979845,-0.002872, 0.001690, 0.007561,-0.064655,,,,,
