Type,Units,Time,X Position,Y Position,Y Encoder,Z Position,Z Encoder,Yaw,Pitch,WAFBC Drag,WAFBC Side,WAFBC Lift,WAFBC Roll,WAFBC Pitch,WAFBC Yaw,WAFMC Drag,WAFMC Side,WAFMC Lift,WAFMC Roll,WAFMC Pitch,WAFMC Yaw,BAFMC Axial,BAFMC Side,BAFMC Normal,BAFMC Roll,BAFMC Pitch,BAFMC Yaw,DPT250,DPT251,PT250,TE250,Velocity,Dynamic Pressure,Mach,Reynolds Number per ft,Velocity Setpoint,Temperature Setpoint,cDAQ AI0,cDAQ AI1,cDAQ AI2,cDAQ AI3,cDAQ AI4,cDAQ AI5,cDAQ AI6,cDAQ AI7,cRIO AI0,cRIO AI1,cRIO AI2,cRIO AI3,Drag (raw),Side (raw),Lift (raw),Roll (raw),Pitch (raw),Yaw (raw)
Type,USC / SI,Time,Inches / Millimeters,Inches / Millimeters,Inches / Millimeters,Inches / Millimeters,Inches / Millimeters,Degrees / Degrees,Degrees / Degrees,lb / N,lb / N,lb / N,ft-lb / N-m,ft-lb / N-m,ft-lb / N-m,lb / N,lb / N,lb / N,ft-lb / N-m,ft-lb / N-m,ft-lb / N-m,lb / N,lb / N,lb / N,ft-lb / N-m,ft-lb / N-m,ft-lb / N-m,PSId / Pascals,PSId / Pascals,PSIa / Pascals,F / F,Ft/s / m/s,PSId / Pascals, / ,1/ft / 1/ft,ft/s / m/s,F / F, / , / , / , / , / , / , / , / , / , / , / , / , / , / , / , / , / , / 
Sing,USC,191023 14:59:24.230, 0.000000, 0.000000, 0.000000, 0.000000, 0.000000,-9.999998, 5.000016, 6.173028,-3.149438,15.721499,-1.540817,-3.355678, 1.002367, 6.173028,-3.149438,15.721499,-1.409590,-3.098469, 1.002367, 4.141076,-4.173526,16.143850,-2.006251,-2.806623, 0.830671, 0.124497, 0.124979,14.699373,74.053864,124.821869, 0.124991, 0.110214,754664.163750,125.000000,74.053496,-0.000000,-0.000000,-0.000000,-0.000000,-0.000000,-0.000000,-0.000000,-0.000000,-10.422729,10.314362, 0.001821,-10.375275,-0.042605,,,,,
Sing,USC,191023 14:59:41.634, 0.000000, 0.000000, 0.000000, 0.000000, 0.000000,-9.999997, 3.999976, 5.893956,-3.099204,14.305155,-1.640293,-3.515763, 0.917239, 5.893956,-3.099204,14.305155,-1.511159,-3.270182, 0.917239, 4.255543,-4.075595,14.637662,-2.115037,-2.958090, 0.771583, 0.124832, 0.125298,14.700150,74.121203,125.016903, 0.125371, 0.110379,755701.830625,125.000000,74.120830,-0.000000,-0.000000,-0.000000,-0.000000,-0.000000,-0.000000,-0.000000,-0.000000,-10.422729,10.314362, 0.001901,-10.375275,-0.039915,,,,,
Sing,USC,191023 14:59:58.833, 0.000000, 0.000000, 0.000000, 0.000000, 0.000000,-9.999997, 2.999974, 5.652490,-3.079934,12.775961,-1.585670,-3.655794, 0.881883, 5.652490,-3.079934,12.775961,-1.457340,-3.420274, 0.881883, 4.356260,-4.014688,13.021793,-2.072496,-3.115248, 0.774480, 0.124929, 0.125445,14.699283,74.185571,125.046114, 0.125411, 0.110398,755698.827500,125.000000,74.185336,-0.000000,-0.000000,-0.000000,-0.000000,-0.000000,-0.000000,-0.000000,-0.000000,-10.422729,10.314362, 0.001886,-10.375275,-0.037839,,,,,
Sing,USC,191023 15:00:16.131, 0.000000, 0.000000, 0.000000, 0.000000, 0.000000,-9.999997, 1.999973, 5.458707,-3.054317,11.242434,-1.487636,-3.803562, 0.856351, 5.458707,-3.054317,11.242434,-1.360373,-3.576116, 0.856351, 4.450099,-3.955810,11.404685,-1.989383,-3.285561, 0.787403, 0.124966, 0.125426,14.698715,74.243199,125.055381, 0.125403, 0.110400,755528.989375,125.000000,74.242870,-0.000000,-0.000000,-0.000000,-0.000000,-0.000000,-0.000000,-0.000000,-0.000000,-10.422729,10.314362, 0.001875,-10.375275,-0.036363,,,,,
Sing,USC,191023 15:00:33.525, 0.000000, 0.000000, 0.000000, 0.000000, 0.000000,-9.999997, 1.000020, 5.263523,-3.034533, 9.741974,-1.411787,-3.889888, 0.810870, 5.263523,-3.034533, 9.741974,-1.285348,-3.670575, 0.810870, 4.485884,-3.902432, 9.821760,-1.917072,-3.391612, 0.777531, 0.124971, 0.125431,14.699119,74.298399,125.067397, 0.125421, 0.110405,755508.763125,125.000000,74.298117,-0.000000,-0.000000,-0.000000,-0.000000,-0.000000,-0.000000,-0.000000,-0.000000,-10.422729,10.314362, 0.001836,-10.375275,-0.035356,,,,,
Sing,USC,191023 15:00:50.833, 0.000000, 0.000000, 0.000000, 0.000000, 0.000000,-9.999998,-0.000019, 5.162788,-2.981454, 8.224733,-1.291771,-4.023015, 0.779437, 5.162788,-2.981454, 8.224733,-1.167543,-3.807898, 0.779437, 4.566633,-3.832668, 8.224732,-1.811039,-3.547306, 0.779438, 0.124886, 0.125381,14.700101,74.351052,125.051058, 0.125384, 0.110385,755321.886875,125.000000,74.350740,-0.000000,-0.000000,-0.000000,-0.000000,-0.000000,-0.000000,-0.000000,-0.000000,-10.422729,10.314362, 0.001857,-10.375275,-0.034481,,,,,
Sing,USC,191023 15:01:08.030, 0.000000, 0.000000, 0.000000, 0.000000, 0.000000,-9.999997,-1.000012, 5.079916,-2.877970, 6.726388,-1.317394,-4.210794, 0.692301, 5.079916,-2.877970, 6.726388,-1.197478,-3.999131, 0.692301, 4.619695,-3.716364, 6.646774,-1.861360,-3.730435, 0.724896, 0.124871, 0.125425,14.702014,74.401581,125.028476, 0.125336, 0.110360,755117.724375,125.000000,74.401285,-0.000000,-0.000000,-0.000000,-0.000000,-0.000000,-0.000000,-0.000000,-0.000000,-10.422729,10.314362, 0.001913,-10.375275,-0.034111,,,,,
Sing,USC,191023 15:01:25.339, 0.000000, 0.000000, 0.000000, 0.000000, 0.000000,-9.999997,-1.999999, 4.986504,-2.832245, 5.240539,-1.258274,-4.349876, 0.663023, 4.986504,-2.832245, 5.240539,-1.140264,-4.142105, 0.663023, 4.599134,-3.655114, 5.083128,-1.817948,-3.881173, 0.726911, 0.124808, 0.125309,14.701590,74.448037,125.026757, 0.125323, 0.110354,754996.556875,125.000000,74.447760,-0.000000,-0.000000,-0.000000,-0.000000,-0.000000,-0.000000,-0.000000,-0.000000,-10.422729,10.314362, 0.001855,-10.375275,-0.034015,,,,,
Sing,USC,191023 15:01:42.634, 0.000000, 0.000000, 0.000000, 0.000000, 0.000000,-9.999998,-3.000020, 4.966031,-2.685781, 3.614204,-1.261301,-4.468222, 0.566375, 4.966031,-2.685781, 3.614204,-1.149394,-4.261304, 0.566375, 4.607296,-3.507321, 3.377705,-1.839692,-3.996975, 0.663567, 0.124643, 0.125120,14.700210,74.494363,124.935626, 0.125120, 0.110269,754274.720000,125.000000,74.494252,-0.000000,-0.000000,-0.000000,-0.000000,-0.000000,-0.000000,-0.000000,-0.000000,-10.422729,10.314362, 0.001849,-10.375275,-0.034028,,,,,
Sing,USC,191023 15:01:59.832, 0.000000, 0.000000, 0.000000, 0.000000, 0.000000,-9.999997,-4.000014, 4.966343,-2.591754, 1.984967,-1.183013,-4.607189, 0.513988, 4.966343,-2.591754, 1.984967,-1.075023,-4.400259, 0.513988, 4.568487,-3.414776, 1.670353,-1.782493,-4.146733, 0.639889, 0.124585, 0.125104,14.700397,74.540300,124.913380, 0.125064, 0.110244,754021.435625,125.000000,74.540134,-0.000000,-0.000000,-0.000000,-0.000000,-0.000000,-0.000000,-0.000000,-0.000000,-10.422729,10.314362, 0.001823,-10.375275,-0.034270,,,,,
Sing,USC,191023 15:02:17.236, 0.000000, 0.000000, 0.000000, 0.000000, 0.000000,-9.999998,-4.999980, 4.992536,-2.601505, 0.417082,-1.019976,-4.741937, 0.543326, 4.992536,-2.601505, 0.417082,-0.911579,-4.533915, 0.543326, 4.484303,-3.428928, 0.026351,-1.631271,-4.306740, 0.688118, 0.124653, 0.125183,14.701862,74.585115,124.948560, 0.125139, 0.110271,754211.639375,125.000000,74.584881,-0.000000,-0.000000,-0.000000,-0.000000,-0.000000,-0.000000,-0.000000,-0.000000,-10.422729,10.314362, 0.001850,-10.375275,-0.034748,,,,,
Sing,USC,191023 15:02:34.532, 0.000000, 0.000000, 0.000000, 0.000000, 0.000000,-9.999997,-6.000026, 5.085474,-2.593379,-1.256215,-0.788856,-4.855384, 0.606847, 5.085474,-2.593379,-1.256215,-0.680798,-4.643489, 0.606847, 4.401599,-3.437063,-1.725763,-1.405265,-4.454724, 0.757890, 0.124709, 0.125214,14.700187,74.628425,124.973061, 0.125164, 0.110288,754167.622500,125.000000,74.628149,-0.000000,-0.000000,-0.000000,-0.000000,-0.000000,-0.000000,-0.000000,-0.000000,-10.422729,10.314362, 0.001874,-10.375275,-0.035515,,,,,
Sing,USC,191023 15:02:51.933, 0.000000, 0.000000, 0.000000, 0.000000, 0.000000,-9.999997,-7.000019, 5.192649,-2.591443,-2.832842,-0.607242,-5.020549, 0.656155, 5.192649,-2.591443,-2.832842,-0.499265,-4.804189, 0.656155, 4.283761,-3.453767,-3.380097,-1.236070,-4.644506, 0.812854, 0.124684, 0.125166,14.701675,74.671934,124.939141, 0.125096, 0.110253,753915.358750,125.000000,74.671705,-0.000000,-0.000000,-0.000000,-0.000000,-0.000000,-0.000000,-0.000000,-0.000000,-10.422729,10.314362, 0.001846,-10.375275,-0.036436,,,,,
Sing,USC,191023 15:03:09.131, 0.000000, 0.000000, 0.000000, 0.000000, 0.000000,-9.999998,-8.000019, 5.351201,-2.576293,-4.389143,-0.464460,-5.260732, 0.680677, 5.351201,-2.576293,-4.389143,-0.357115,-5.037765, 0.680677, 4.164751,-3.466379,-5.017596,-1.119820,-4.899218, 0.844747, 0.124693, 0.125163,14.699637,74.715803,124.972324, 0.125129, 0.110278,753867.790625,125.000000,74.715590,-0.000000,-0.000000,-0.000000,-0.000000,-0.000000,-0.000000,-0.000000,-0.000000,-10.422729,10.314362, 0.001942,-10.375275,-0.037752,,,,,
Sing,USC,191023 15:03:26.334, 0.000000, 0.000000, 0.000000, 0.000000, 0.000000,-9.999997,-9.000012, 5.537854,-2.514430,-6.010644,-0.362129,-5.447994, 0.694747, 5.537854,-2.514430,-6.010644,-0.257361,-5.217249, 0.694747, 4.015054,-3.437869,-6.721491,-1.036460,-5.093297, 0.867566, 0.124577, 0.125056,14.699371,74.757185,124.913729, 0.125016, 0.110222,753494.914375,125.000000,74.756939,-0.000000,-0.000000,-0.000000,-0.000000,-0.000000,-0.000000,-0.000000,-0.000000,-10.422729,10.314362, 0.001856,-10.375275,-0.039161,,,,,
Sing,USC,191023 15:03:43.531, 0.000000, 0.000000, 0.000000, 0.000000, 0.000000,-9.999997,-10.000010, 5.740235,-2.457244,-7.596004,-0.256202,-5.597508, 0.686004, 5.740235,-2.457244,-7.596004,-0.153817,-5.358331, 0.686004, 3.827899,-3.416694,-8.388147,-0.946383,-5.250217, 0.863460, 0.124548, 0.124978,14.701269,74.801742,124.904433, 0.124997, 0.110209,753387.689375,125.000000,74.801438,-0.000000,-0.000000,-0.000000,-0.000000,-0.000000,-0.000000,-0.000000,-0.000000,-10.422729,10.314362, 0.001849,-10.375275,-0.040854,,,,,
Sing,USC,191023 15:04:00.733, 0.000000, 0.000000, 0.000000, 0.000000, 0.000000,-9.999997,-10.999984, 6.028261,-2.360366,-9.235297,-0.205069,-5.751399, 0.641683, 6.028261,-2.360366,-9.235297,-0.106721,-5.500221, 0.641683, 3.663087,-3.371303,-10.120181,-0.918284,-5.398129, 0.832190, 0.124492, 0.124966,14.701081,74.845640,124.887706, 0.124945, 0.110190,753123.608750,125.000000,74.845446,-0.000000,-0.000000,-0.000000,-0.000000,-0.000000,-0.000000,-0.000000,-0.000000,-10.422729,10.314362, 0.001854,-10.375275,-0.043012,,,,,
Sing,USC,191023 15:04:17.933, 0.000000, 0.000000, 0.000000, 0.000000, 0.000000,-9.999997,-12.000022, 6.357723,-2.241943,-10.899768,-0.139040,-5.861297, 0.613514, 6.357723,-2.241943,-10.899768,-0.045626,-5.596392, 0.613514, 3.477318,-3.311889,-11.882404,-0.866961,-5.503447, 0.811499, 0.124405, 0.124884,14.700372,74.888412,124.857552, 0.124876, 0.110159,752843.866875,125.000000,74.888175,-0.000000,-0.000000,-0.000000,-0.000000,-0.000000,-0.000000,-0.000000,-0.000000,-10.422729,10.314362, 0.001867,-10.375275,-0.045550,,,,,
Sing,USC,191023 15:04:35.337, 0.000000, 0.000000, 0.000000, 0.000000, 0.000000,-9.999997,-13.000013, 6.733732,-2.106758,-12.575421,-0.053263,-5.940026, 0.580162, 6.733732,-2.106758,-12.575421, 0.034519,-5.659453, 0.580162, 3.276152,-3.244052,-13.662567,-0.793934,-5.579468, 0.778717, 0.124422, 0.124958,14.699561,74.929121,124.874473, 0.124889, 0.110170,752775.481875,125.000000,74.928958,-0.000000,-0.000000,-0.000000,-0.000000,-0.000000,-0.000000,-0.000000,-0.000000,-10.422729,10.314362, 0.001874,-10.375275,-0.048370,,,,,
Sing,USC,191023 15:04:52.744, 0.000000, 0.000000, 0.000000, 0.000000, 0.000000,-9.999997,-13.999978, 7.151399,-1.928639,-14.320965,-0.014022,-6.021431, 0.489850, 7.151399,-1.928639,-14.320965, 0.066338,-5.723456, 0.489850, 3.044048,-3.141166,-15.518346,-0.782450,-5.648023, 0.699932, 0.124317, 0.124803,14.699593,74.970623,124.851128, 0.124835, 0.110145,752545.901875,125.000000,74.970353,-0.000000,-0.000000,-0.000000,-0.000000,-0.000000,-0.000000,-0.000000,-0.000000,-10.422729,10.314362, 0.001873,-10.375275,-0.051545,,,,,
Sing,USC,191023 15:05:09.937, 0.000000, 0.000000, 0.000000, 0.000000, 0.000000,-9.999997,-15.000029, 7.612676,-1.630279,-16.087681, 0.026755,-6.029414, 0.395909, 7.612676,-1.630279,-16.087681, 0.094684,-5.712218, 0.395909, 2.804312,-2.927439,-17.406610,-0.765580,-5.641879, 0.615013, 0.124179, 0.124691,14.698670,75.013148,124.748967, 0.124607, 0.110050,751740.756875,125.000000,75.012908,-0.000000,-0.000000,-0.000000,-0.000000,-0.000000,-0.000000,-0.000000,-0.000000,-10.422729,10.314362, 0.001868,-10.375275,-0.055266,,,,,
Sing,USC,191023 15:05:27.137, 0.000000, 0.000000, 0.000000, 0.000000, 0.000000,-9.999997,-16.000023, 8.135820,-1.409257,-17.759973, 0.124719,-6.143514, 0.273999, 8.135820,-1.409257,-17.759973, 0.183438,-5.804522, 0.273999, 2.571285,-2.800618,-19.212997,-0.719721,-5.748192, 0.491417, 0.124128, 0.124655,14.700006,75.053844,124.722482, 0.124565, 0.110023,751603.988750,125.000000,75.053745,-0.000000,-0.000000,-0.000000,-0.000000,-0.000000,-0.000000,-0.000000,-0.000000,-10.422729,10.314362, 0.001880,-10.375275,-0.059294,,,,,
Sing,USC,191023 15:05:44.337, 0.000000, 0.000000, 0.000000, 0.000000, 0.000000,-9.999997,-17.000019, 8.764996,-1.181226,-19.550739, 0.231366,-6.254356, 0.193696, 8.764996,-1.181226,-19.550739, 0.280584,-5.889148, 0.193696, 2.342421,-2.685306,-21.160200,-0.657077,-5.848401, 0.403434, 0.124185, 0.124671,14.697525,75.093233,124.790841, 0.124667, 0.110079,751767.743125,125.000000,75.093004,-0.000000,-0.000000,-0.000000,-0.000000,-0.000000,-0.000000,-0.000000,-0.000000,-10.422729,10.314362, 0.001875,-10.375275,-0.064138,,,,,
Sing,USC,191023 15:06:01.736, 0.000000, 0.000000, 0.000000, 0.000000, 0.000000,-9.999997,-18.000011, 9.624263,-1.082551,-21.353299, 0.304406,-6.264149, 0.328095, 9.624263,-1.082551,-21.353299, 0.349513,-5.863138, 0.328095, 2.236841,-2.737340,-23.178983,-0.539549,-5.834756, 0.520291, 0.124135, 0.124633,14.696311,75.133219,124.793506, 0.124651, 0.110077,751608.405625,125.000000,75.132965,-0.000000,-0.000000,-0.000000,-0.000000,-0.000000,-0.000000,-0.000000,-0.000000,-10.422729,10.314362, 0.001889,-10.375275,-0.070352,,,,,
Sing,USC,191023 15:06:19.134, 0.000000, 0.000000, 0.000000, 0.000000, 0.000000,-9.999998,-19.000009,10.455719,-0.889624,-22.836998, 0.100779,-6.096930, 0.312156,10.455719,-0.889624,-22.836998, 0.137847,-5.661275, 0.312156, 2.154816,-2.691725,-24.894846,-0.699526,-5.599204, 0.571009, 0.124011, 0.124565,14.698518,75.173421,124.729256, 0.124533, 0.110017,751239.607500,125.000000,75.173067,-0.000000,-0.000000,-0.000000,-0.000000,-0.000000,-0.000000,-0.000000,-0.000000,-10.422729,10.314362, 0.001888,-10.375275,-0.077031,,,,,
Sing,USC,191023 15:06:36.542, 0.000000, 0.000000, 0.000000, 0.000000, 0.000000,-9.999997,-20.000005,11.409763,-0.701025,-24.258457, 0.008599,-6.304805, 0.324987,11.409763,-0.701025,-24.258457, 0.037808,-5.829399, 0.324987, 2.147510,-2.671659,-26.596942,-0.805077,-5.747402, 0.638867, 0.124150, 0.124588,14.696305,75.212020,124.822911, 0.124698, 0.110095,751633.525625,125.000000,75.211791,-0.000000,-0.000000,-0.000000,-0.000000,-0.000000,-0.000000,-0.000000,-0.000000,-10.422729,10.314362, 0.001868,-10.375275,-0.083561,,,,,
Sing,USC,191023 15:06:53.733, 0.000000, 0.000000, 0.000000, 0.000000, 0.000000,-9.999997,-21.000019,12.318538,-0.461648,-25.554117,-0.196653,-6.372551, 0.212059,12.318538,-0.461648,-25.554117,-0.177418,-5.859279, 0.212059, 2.093004,-2.593726,-28.175598,-1.036996,-5.739456, 0.625213, 0.124038, 0.124507,14.696752,75.251612,124.722874, 0.124491, 0.110003,750940.230000,125.000000,75.251438,-0.000000,-0.000000,-0.000000,-0.000000,-0.000000,-0.000000,-0.000000,-0.000000,-10.422729,10.314362, 0.001935,-10.375275,-0.089971,,,,,
Sing,USC,191023 15:07:11.131, 0.000000, 0.000000, 0.000000, 0.000000, 0.000000,-9.999997,-22.000015,13.352745,-0.344432,-26.803709,-0.197137,-6.562853, 0.201069,13.352745,-0.344432,-26.803709,-0.182786,-6.006489, 0.201069, 2.096054,-2.657879,-29.755596,-1.058647,-5.883497, 0.644581, 0.123878, 0.124385,14.696563,75.291204,124.665696, 0.124360, 0.109948,750452.343750,125.000000,75.290964,-0.000000,-0.000000,-0.000000,-0.000000,-0.000000,-0.000000,-0.000000,-0.000000,-10.422729,10.314362, 0.001873,-10.375275,-0.096348,,,,,
Sing,USC,191023 15:07:28.533, 0.000000, 0.000000, 0.000000, 0.000000, 0.000000,-9.999998,-22.999980,14.339028,-0.297602,-27.968689,-0.131285,-6.679960, 0.214113,14.339028,-0.297602,-27.968689,-0.118885,-6.082500, 0.214113, 2.022824,-2.783027,-31.242707,-0.996362,-5.969450, 0.655535, 0.123907, 0.124356,14.698535,75.330564,124.675748, 0.124389, 0.109953,750526.451250,125.000000,75.330346,-0.000000,-0.000000,-0.000000,-0.000000,-0.000000,-0.000000,-0.000000,-0.000000,-10.422729,10.314362, 0.001917,-10.375275,-0.103113,,,,,
Sing,USC,191023 15:07:45.833, 0.000000, 0.000000, 0.000000, 0.000000, 0.000000,-9.999997,-24.000023,15.299724,-0.261994,-28.886597,-0.114181,-6.688952, 0.173436,15.299724,-0.261994,-28.886597,-0.103264,-6.051463, 0.173436, 1.973840,-2.914782,-32.499133,-0.982337,-5.941596, 0.627214, 0.123665, 0.124160,14.698846,75.366802,124.556717, 0.124146, 0.109844,749737.993750,125.000000,75.366603,-0.000000,-0.000000,-0.000000,-0.000000,-0.000000,-0.000000,-0.000000,-0.000000,-10.422729,10.314362, 0.001883,-10.375275,-0.109924,,,,,
Sing,USC,191023 15:08:03.139, 0.000000, 0.000000, 0.000000, 0.000000, 0.000000,-9.999998,-25.000023,16.304223,-0.415016,-29.522032, 0.042038,-6.794763, 0.207032,16.304223,-0.415016,-29.522032, 0.059330,-6.115420, 0.207032, 2.010276,-3.239909,-33.511372,-0.821986,-6.032816, 0.611734, 0.123540, 0.124055,14.699348,75.405352,124.501995, 0.124038, 0.109792,749366.050000,125.000000,75.405123,-0.000000,-0.000000,-0.000000,-0.000000,-0.000000,-0.000000,-0.000000,-0.000000,-10.422729,10.314362, 0.001862,-10.375275,-0.117028,,,,,
Sing,USC,191023 15:08:20.338, 0.000000, 0.000000, 0.000000, 0.000000, 0.000000,-9.999997,-26.000020,17.433023,-0.687492,-29.884655, 0.288395,-7.381924, 0.367869,17.433023,-0.687492,-29.884655, 0.317040,-6.655548, 0.367869, 2.222773,-3.704260,-34.333851,-0.596869,-6.609489, 0.700404, 0.123613, 0.124113,14.696993,75.444257,124.542268, 0.124089, 0.109824,749395.755000,125.000000,75.444127,-0.000000,-0.000000,-0.000000,-0.000000,-0.000000,-0.000000,-0.000000,-0.000000,-10.422729,10.314362, 0.001889,-10.375275,-0.124474,,,,,
Sing,USC,191023 15:08:37.737, 0.000000, 0.000000, 0.000000, 0.000000, 0.000000,-9.999997,-27.000011,18.748531,-1.128156,-30.292341, 1.327607,-8.400235, 0.919407,18.748531,-1.128156,-30.292341, 1.374614,-7.619047, 0.919407, 2.524285,-4.366664,-35.284079, 0.444754,-7.741995, 0.805262, 0.124012, 0.124483,14.699731,75.480014,124.709181, 0.124430, 0.109967,750403.847500,125.000000,75.479909,-0.000000,-0.000000,-0.000000,-0.000000,-0.000000,-0.000000,-0.000000,-0.000000,-10.422729,10.314362, 0.001892,-10.375275,-0.132061,,,,,
Sing,USC,191023 15:08:55.034, 0.000000, 0.000000, 0.000000, 0.000000, 0.000000,-9.999997,-28.000010,19.770189,-1.603140,-30.662111, 2.515081,-9.047262, 1.452391,19.770189,-1.603140,-30.662111, 2.581878,-8.223504, 1.452391, 2.550052,-5.011842,-36.082878, 1.666041,-8.546909, 0.759086, 0.124311, 0.124807,14.702122,75.519608,124.865526, 0.124756, 0.110101,751388.222500,125.000000,75.519370,-0.000000,-0.000000,-0.000000,-0.000000,-0.000000,-0.000000,-0.000000,-0.000000,-10.422729,10.314362, 0.001909,-10.375275,-0.139866,,,,,
Sing,USC,191023 15:09:12.432, 0.000000, 0.000000, 0.000000, 0.000000, 0.000000,-9.999997,-28.999991,20.824123,-2.778360,-30.887969, 4.740346,-9.622631, 2.587648,20.824123,-2.778360,-30.887969, 4.856111,-8.754959, 2.587648, 2.539744,-6.352220,-36.723684, 4.107574,-9.465207, 0.681733, 0.123791, 0.124236,14.701863,75.558135,124.631120, 0.124276, 0.109890,749868.138125,125.000000,75.557969,-0.000000,-0.000000,-0.000000,-0.000000,-0.000000,-0.000000,-0.000000,-0.000000,-10.422729,10.314362, 0.001869,-10.375275,-0.146538,,,,,
Sing,USC,191023 15:09:29.635, 0.000000, 0.000000, 0.000000, 0.000000, 0.000000,-9.999997,-30.000017,22.296114,-3.716375,-31.515538, 6.125976,-10.502768, 3.350766,22.296114,-3.716375,-31.515538, 6.280824,-9.573763, 3.350766, 2.698992,-7.531592,-37.949280, 5.592363,-10.518969, 0.640379, 0.123722, 0.124172,14.702782,75.592886,124.571513, 0.124157, 0.109834,749468.911875,125.000000,75.592607,-0.000000,-0.000000,-0.000000,-0.000000,-0.000000,-0.000000,-0.000000,-0.000000,-10.422729,10.314362, 0.001916,-10.375275,-0.156521,,,,,
Sing,USC,191023 15:09:46.833, 0.000000, 0.000000, 0.000000, 0.000000, 0.000000,-9.999997,-31.000021,23.652052,-4.223975,-32.183874, 7.166572,-11.354496, 3.910358,23.652052,-4.223975,-32.183874, 7.342571,-10.368993, 3.910358, 2.761108,-8.266937,-39.205832, 6.668800,-11.486488, 0.554932, 0.123525, 0.123941,14.702293,75.633465,124.492808, 0.123993, 0.109761,748905.413750,125.000000,75.633243,-0.000000,-0.000000,-0.000000,-0.000000,-0.000000,-0.000000,-0.000000,-0.000000,-10.422729,10.314362, 0.001922,-10.375275,-0.164921,,,,,
Sing,USC,191023 15:10:04.235, 0.000000, 0.000000, 0.000000, 0.000000, 0.000000,-9.999997,-31.999976,24.845510,-4.681334,-32.599325, 8.322732,-11.936256, 4.523399,24.845510,-4.681334,-32.599325, 8.517787,-10.901027, 4.523399, 2.785708,-8.924590,-40.181112, 7.905481,-12.214514, 0.394004, 0.123713, 0.124190,14.703937,75.673908,124.593426, 0.124189, 0.109845,749442.485000,125.000000,75.673645,-0.000000,-0.000000,-0.000000,-0.000000,-0.000000,-0.000000,-0.000000,-0.000000,-10.422729,10.314362, 0.001981,-10.375275,-0.172629,,,,,
Sing,USC,191023 15:10:21.531, 0.000000, 0.000000, 0.000000, 0.000000, 0.000000,-9.999997,-33.000023,26.347306,-4.948631,-33.204792, 8.999346,-12.762647, 4.878861,26.347306,-4.948631,-33.204792, 9.205539,-11.664842, 4.878861, 2.955682,-9.448610,-41.511629, 8.561549,-13.086153, 0.257436, 0.124396, 0.124859,14.702322,75.713853,124.958466, 0.124902, 0.110163,751497.949375,125.000000,75.713632,-0.000000,-0.000000,-0.000000,-0.000000,-0.000000,-0.000000,-0.000000,-0.000000,-10.422729,10.314362, 0.001951,-10.375275,-0.181958,,,,,
Sing,USC,191023 15:10:38.726, 0.000000, 0.000000, 0.000000, 0.000000, 0.000000,-9.999997,-34.000026,27.487811,-5.803763,-33.182883,11.101366,-13.833390, 6.034097,27.487811,-5.803763,-33.182883,11.343189,-12.688064, 6.034097, 3.051055,-10.488797,-42.083766,10.808703,-14.465027,-0.012131, 0.124161, 0.124586,14.703931,75.756325,124.820603, 0.124627, 0.110037,750624.948750,125.000000,75.756099,-0.000000,-0.000000,-0.000000,-0.000000,-0.000000,-0.000000,-0.000000,-0.000000,-10.422729,10.314362, 0.001966,-10.375275,-0.190203,,,,,
Sing,USC,191023 15:10:55.934, 0.000000, 0.000000, 0.000000, 0.000000, 0.000000,-9.999998,-34.998520,28.627153,-6.721186,-33.123742,13.347144,-15.119043, 7.351187,28.627153,-6.721186,-33.123742,13.627193,-13.926245, 7.351187, 3.139790,-11.590129,-42.634270,13.228704,-16.081011,-0.288339, 0.123779, 0.124291,14.704396,75.797598,124.646099, 0.124270, 0.109879,749474.856875,125.000000,75.797397,-0.000000,-0.000000,-0.000000,-0.000000,-0.000000,-0.000000,-0.000000,-0.000000,-10.422729,10.314362, 0.001942,-10.375275,-0.197629,,,,,
