Type,Units,Time,X Position,Y Position,Y Encoder,Z Position,Z Encoder,Yaw,Pitch,WAFBC Drag,WAFBC Side,WAFBC Lift,WAFBC Roll,WAFBC Pitch,WAFBC Yaw,WAFMC Drag,WAFMC Side,WAFMC Lift,WAFMC Roll,WAFMC Pitch,WAFMC Yaw,BAFMC Axial,BAFMC Side,BAFMC Normal,BAFMC Roll,BAFMC Pitch,BAFMC Yaw,DPT250,DPT251,PT250,TE250,Velocity,Dynamic Pressure,Mach,Reynolds Number per ft,Velocity Setpoint,Temperature Setpoint,cDAQ AI0,cDAQ AI1,cDAQ AI2,cDAQ AI3,cDAQ AI4,cDAQ AI5,cDAQ AI6,cDAQ AI7,cRIO AI0,cRIO AI1,cRIO AI2,cRIO AI3,Drag (raw),Side (raw),Lift (raw),Roll (raw),Pitch (raw),Yaw (raw)
Type,USC / SI,Time,Inches / Millimeters,Inches / Millimeters,Inches / Millimeters,Inches / Millimeters,Inches / Millimeters,Degrees / Degrees,Degrees / Degrees,lb / N,lb / N,lb / N,ft-lb / N-m,ft-lb / N-m,ft-lb / N-m,lb / N,lb / N,lb / N,ft-lb / N-m,ft-lb / N-m,ft-lb / N-m,lb / N,lb / N,lb / N,ft-lb / N-m,ft-lb / N-m,ft-lb / N-m,PSId / Pascals,PSId / Pascals,PSIa / Pascals,F / F,Ft/s / m/s,PSId / Pascals, / ,1/ft / 1/ft,ft/s / m/s,F / F, / , / , / , / , / , / , / , / , / , / , / , / , / , / , / , / , / , / 
Sing,USC,191024 15:05:33.159, 0.000000, 0.000000, 0.000000, 0.000000, 0.000039, 9.999998, 5.000013, 4.112362, 2.443254,15.475319, 2.011009,-3.012028, 0.155634, 4.112362, 2.443254,15.475319, 1.909207,-2.840680, 0.155634, 2.263057, 3.120240,15.732426, 2.350885,-2.465994, 0.361905, 0.124011, 0.124518,14.700811,75.477123,124.764235, 0.124546, 0.110016,750778.809375,125.000000,75.476814,-0.000000,-0.000000,-0.000000,-0.000000,-0.000000,-0.000000,-0.000000,-0.000000,-10.422729,10.314362, 0.001839,-10.375275,-0.030387,,,,,
Sing,USC,191024 15:05:50.561, 0.000000, 0.000000, 0.000000, 0.000000, 0.000039, 9.999998, 3.999975, 3.861379, 2.547268,14.060625, 1.969227,-3.251775, 0.089791, 3.861379, 2.547268,14.060625, 1.863090,-3.090884, 0.089791, 2.371389, 3.179091,14.260782, 2.359472,-2.720404, 0.255001, 0.124495, 0.125034,14.701280,75.528120,124.968254, 0.124950, 0.110191,751932.081250,125.000000,75.527869,-0.000000,-0.000000,-0.000000,-0.000000,-0.000000,-0.000000,-0.000000,-0.000000,-10.422729,10.314362, 0.001848,-10.375275,-0.027560,,,,,
Sing,USC,191024 15:06:07.863, 0.000000, 0.000000, 0.000000, 0.000000, 0.000039, 9.999998, 2.999970, 3.611671, 2.565863,12.470956, 1.930868,-3.262408, 0.113019, 3.611671, 2.565863,12.470956, 1.823957,-3.111922, 0.113019, 2.454308, 3.154041,12.616694, 2.327510,-2.747919, 0.235153, 0.124645, 0.125150,14.698499,75.579667,125.044893, 0.125076, 0.110253,752173.227500,125.000000,75.579289,-0.000000,-0.000000,-0.000000,-0.000000,-0.000000,-0.000000,-0.000000,-0.000000,-10.422729,10.314362, 0.001872,-10.375275,-0.025386,,,,,
Sing,USC,191024 15:06:25.267, 0.000000, 0.000000, 0.000000, 0.000000, 0.000039, 9.999998, 1.999967, 3.426048, 2.582306,10.918181, 1.863655,-3.370443, 0.145994, 3.426048, 2.582306,10.918181, 1.756059,-3.227691, 0.145994, 2.542772, 3.138002,11.013629, 2.283373,-2.873718, 0.225818, 0.124712, 0.125229,14.699307,75.626677,125.115157, 0.125197, 0.110310,752429.134375,125.000000,75.626287,-0.000000,-0.000000,-0.000000,-0.000000,-0.000000,-0.000000,-0.000000,-0.000000,-10.422729,10.314362, 0.001878,-10.375275,-0.024047,,,,,
Sing,USC,191024 15:06:42.462, 0.000000, 0.000000, 0.000000, 0.000000, 0.000039, 9.999998, 1.000029, 3.295499, 2.569060, 9.348089, 1.845774,-3.527094, 0.184053, 3.295499, 2.569060, 9.348089, 1.738730,-3.389781, 0.184053, 2.635744, 3.102287, 9.395521, 2.297381,-3.036356, 0.224181, 0.124633, 0.125126,14.700195,75.671326,125.094185, 0.125156, 0.110287,752255.460625,125.000000,75.670923,-0.000000,-0.000000,-0.000000,-0.000000,-0.000000,-0.000000,-0.000000,-0.000000,-10.422729,10.314362, 0.001860,-10.375275,-0.023158,,,,,
Sing,USC,191024 15:06:59.861, 0.000000, 0.000000, 0.000000, 0.000000, 0.000039, 9.999998,-0.000014, 3.229512, 2.544982, 7.816459, 1.763007,-3.709522, 0.212570, 3.229512, 2.544982, 7.816459, 1.656967,-3.574959, 0.212570, 2.738520, 3.067116, 7.816458, 2.252578,-3.232918, 0.212569, 0.124657, 0.125127,14.700583,75.715362,125.077581, 0.125118, 0.110268,752080.175000,125.000000,75.715078,-0.000000,-0.000000,-0.000000,-0.000000,-0.000000,-0.000000,-0.000000,-0.000000,-10.422729,10.314362, 0.001888,-10.375275,-0.022679,,,,,
Sing,USC,191024 15:07:17.260, 0.000000, 0.000000, 0.000000, 0.000000, 0.000039, 9.999998,-1.000014, 3.156583, 2.565184, 6.438240, 1.707633,-3.976787, 0.203988, 3.156583, 2.565184, 6.438240, 1.600749,-3.845262, 0.203988, 2.775146, 3.074348, 6.390780, 2.247372,-3.508876, 0.164790, 0.124570, 0.125085,14.702506,75.756552,125.065160, 0.125099, 0.110253,751994.466875,125.000000,75.756295,-0.000000,-0.000000,-0.000000,-0.000000,-0.000000,-0.000000,-0.000000,-0.000000,-10.422729,10.314362, 0.001877,-10.375275,-0.022468,,,,,
Sing,USC,191024 15:07:34.659, 0.000000, 0.000000, 0.000000, 0.000000, 0.000039, 9.999998,-1.999987, 3.137370, 2.553429, 4.885008, 1.672646,-4.187794, 0.205967, 3.137370, 2.553429, 4.885008, 1.566253,-4.057071, 0.205967, 2.815179, 3.059436, 4.789678, 2.252780,-3.723458, 0.127424, 0.124486, 0.125036,14.701011,75.797789,125.023877, 0.124999, 0.110212,751601.712500,125.000000,75.797466,-0.000000,-0.000000,-0.000000,-0.000000,-0.000000,-0.000000,-0.000000,-0.000000,-10.422729,10.314362, 0.001863,-10.375275,-0.022820,,,,,
Sing,USC,191024 15:07:51.862, 0.000000, 0.000000, 0.000000, 0.000000, 0.000039, 9.999998,-3.000018, 3.140951, 2.454687, 3.231046, 1.746594,-4.275802, 0.315801, 3.140951, 2.454687, 3.231046, 1.644316,-4.144930, 0.315801, 2.832427, 2.962816, 3.087038, 2.352416,-3.796426, 0.192948, 0.124455, 0.124974,14.702566,75.839350,124.994818, 0.124950, 0.110182,751433.382500,125.000000,75.839004,-0.000000,-0.000000,-0.000000,-0.000000,-0.000000,-0.000000,-0.000000,-0.000000,-10.422729,10.314362, 0.001880,-10.375275,-0.023131,,,,,
Sing,USC,191024 15:08:09.268, 0.000000, 0.000000, 0.000000, 0.000000, 0.000039, 9.999998,-4.000019, 3.199776, 2.533654, 1.649060, 1.440185,-4.492199, 0.161946, 3.199776, 2.533654, 1.649060, 1.334616,-4.358875, 0.161946, 2.819629, 3.050797, 1.455918, 2.077502,-4.060900, 0.017067, 0.124379, 0.124834,14.700249,75.878758,124.960232, 0.124848, 0.110148,750989.312500,125.000000,75.878456,-0.000000,-0.000000,-0.000000,-0.000000,-0.000000,-0.000000,-0.000000,-0.000000,-10.422729,10.314362, 0.001880,-10.375275,-0.023903,,,,,
Sing,USC,191024 15:08:26.659, 0.000000, 0.000000, 0.000000, 0.000000, 0.000039, 9.999998,-4.999978, 3.286368, 2.485701, 0.005265, 1.330100,-4.706833, 0.160025, 3.286368, 2.485701, 0.005265, 1.226529,-4.569902, 0.160025, 2.794589, 3.018608,-0.239209, 2.007782,-4.287490,-0.015021, 0.124382, 0.124893,14.699767,75.915651,124.993238, 0.124900, 0.110173,751063.890625,125.000000,75.915399,-0.000000,-0.000000,-0.000000,-0.000000,-0.000000,-0.000000,-0.000000,-0.000000,-10.422729,10.314362, 0.001919,-10.375275,-0.024772,,,,,
Sing,USC,191024 15:08:43.965, 0.000000, 0.000000, 0.000000, 0.000000, 0.000039, 9.999998,-6.000028, 3.435061, 2.615838,-1.778191, 0.912726,-4.917459,-0.008272, 3.435061, 2.615838,-1.778191, 0.803732,-4.774332,-0.008272, 2.726723, 3.172589,-2.074578, 1.610833,-4.562233,-0.177623, 0.124407, 0.124906,14.699784,75.952939,125.001190, 0.124911, 0.110176,751041.580625,125.000000,75.952718,-0.000000,-0.000000,-0.000000,-0.000000,-0.000000,-0.000000,-0.000000,-0.000000,-10.422729,10.314362, 0.001894,-10.375275,-0.026058,,,,,
Sing,USC,191024 15:09:01.365, 0.000000, 0.000000, 0.000000, 0.000000, 0.000039, 9.999998,-7.000024, 3.578825, 2.609275,-3.375053, 0.776874,-5.128845,-0.030490, 3.578825, 2.609275,-3.375053, 0.668154,-4.979727,-0.030490, 2.637148, 3.191090,-3.724201, 1.507658,-4.788051,-0.215838, 0.124383, 0.124900,14.703605,75.990783,124.978949, 0.124879, 0.110153,750938.952500,125.000000,75.990427,-0.000000,-0.000000,-0.000000,-0.000000,-0.000000,-0.000000,-0.000000,-0.000000,-10.422729,10.314362, 0.001835,-10.375275,-0.027296,,,,,
Sing,USC,191024 15:09:18.568, 0.000000, 0.000000, 0.000000, 0.000000, 0.000039, 9.999998,-8.000018, 3.753848, 2.640813,-4.976034, 0.599904,-5.319944,-0.110366, 3.753848, 2.640813,-4.976034, 0.489871,-5.163533,-0.110366, 2.514199, 3.252542,-5.378284, 1.350285,-5.000022,-0.301221, 0.124337, 0.124838,14.700105,76.030883,124.991412, 0.124869, 0.110159,750758.887500,125.000000,76.030479,-0.000000,-0.000000,-0.000000,-0.000000,-0.000000,-0.000000,-0.000000,-0.000000,-10.422729,10.314362, 0.001853,-10.375275,-0.028822,,,,,
Sing,USC,191024 15:09:35.964, 0.000000, 0.000000, 0.000000, 0.000000, 0.000039, 9.999998,-9.000014, 3.990581, 2.658725,-6.698438, 0.422174,-5.488332,-0.185209, 3.990581, 2.658725,-6.698438, 0.311394,-5.322058,-0.185209, 2.377705, 3.311290,-7.158527, 1.186702,-5.187131,-0.375473, 0.124245, 0.124705,14.700343,76.069115,124.968169, 0.124819, 0.110135,750559.775000,125.000000,76.068877,-0.000000,-0.000000,-0.000000,-0.000000,-0.000000,-0.000000,-0.000000,-0.000000,-10.422729,10.314362, 0.001880,-10.375275,-0.030586,,,,,
Sing,USC,191024 15:09:53.366, 0.000000, 0.000000, 0.000000, 0.000000, 0.000039, 9.999998,-10.000012, 4.233805, 2.718983,-8.358287, 0.239899,-5.716290,-0.263601, 4.233805, 2.718983,-8.358287, 0.126608,-5.539881,-0.263601, 2.189764, 3.412868,-8.873343, 1.024392,-5.433733,-0.448295, 0.124189, 0.124732,14.700015,76.106808,124.930883, 0.124738, 0.110098,750257.236875,125.000000,76.106551,-0.000000,-0.000000,-0.000000,-0.000000,-0.000000,-0.000000,-0.000000,-0.000000,-10.422729,10.314362, 0.001940,-10.375275,-0.032595,,,,,
Sing,USC,191024 15:10:10.763, 0.000000, 0.000000, 0.000000, 0.000000, 0.000039, 9.999998,-10.999985, 4.551216, 2.655714,-9.986562, 0.227818,-5.902188,-0.237030, 4.551216, 2.655714,-9.986562, 0.117164,-5.712554,-0.237030, 2.041514, 3.405677,-10.570306, 1.041785,-5.605422,-0.443969, 0.124023, 0.124549,14.699441,76.143323,124.860674, 0.124579, 0.110033,749683.206250,125.000000,76.143030,-0.000000,-0.000000,-0.000000,-0.000000,-0.000000,-0.000000,-0.000000,-0.000000,-10.422729,10.314362, 0.001888,-10.375275,-0.034904,,,,,
Sing,USC,191024 15:10:27.961, 0.000000, 0.000000, 0.000000, 0.000000, 0.000039, 9.999998,-12.000020, 4.906293, 2.580801,-11.646830, 0.223527,-5.975753,-0.167198, 4.906293, 2.580801,-11.646830, 0.115994,-5.771325,-0.167198, 1.866295, 3.393561,-12.303721, 1.057253,-5.663503,-0.395659, 0.124007, 0.124471,14.700874,76.182072,124.846647, 0.124554, 0.110016,749573.635625,125.000000,76.181721,-0.000000,-0.000000,-0.000000,-0.000000,-0.000000,-0.000000,-0.000000,-0.000000,-10.422729,10.314362, 0.001894,-10.375275,-0.037667,,,,,
Sing,USC,191024 15:10:45.360, 0.000000, 0.000000, 0.000000, 0.000000, 0.000039, 9.999998,-13.000014, 5.263041, 2.484067,-13.344820, 0.199348,-6.018070,-0.090749, 5.263041, 2.484067,-13.344820, 0.095845,-5.798777,-0.090749, 1.628009, 3.360246,-14.071701, 1.052694,-5.694037,-0.336169, 0.123917, 0.124332,14.699100,76.220739,124.771715, 0.124387, 0.109946,748973.773125,125.000000,76.220407,-0.000000,-0.000000,-0.000000,-0.000000,-0.000000,-0.000000,-0.000000,-0.000000,-10.422729,10.314362, 0.001866,-10.375275,-0.040369,,,,,
Sing,USC,191024 15:11:02.766, 0.000000, 0.000000, 0.000000, 0.000000, 0.000039, 9.999998,-13.999980, 5.685805, 2.379303,-15.100608, 0.156921,-6.089737,-0.036829, 5.685805, 2.379303,-15.100608, 0.057783,-5.852829,-0.036829, 1.379047, 3.330486,-15.906726, 1.032449,-5.753877,-0.295374, 0.123827, 0.124318,14.701671,76.259749,124.739883, 0.124327, 0.109914,748762.975625,125.000000,76.259425,-0.000000,-0.000000,-0.000000,-0.000000,-0.000000,-0.000000,-0.000000,-0.000000,-10.422729,10.314362, 0.001854,-10.375275,-0.043512,,,,,
Sing,USC,191024 15:11:19.969, 0.000000, 0.000000, 0.000000, 0.000000, 0.000039, 9.999998,-15.000028, 6.138755, 2.262329,-16.829522, 0.017846,-6.117693, 0.007336, 6.138755, 2.262329,-16.829522,-0.076418,-5.861911, 0.007336, 1.104226, 3.293942,-17.719083, 0.912432,-5.786125,-0.236891, 0.123852, 0.124360,14.700809,76.295939,124.765639, 0.124361, 0.109933,748773.401875,125.000000,76.295759,-0.000000,-0.000000,-0.000000,-0.000000,-0.000000,-0.000000,-0.000000,-0.000000,-10.422729,10.314362, 0.001853,-10.375275,-0.047166,,,,,
Sing,USC,191024 15:11:37.358, 0.000000, 0.000000, 0.000000, 0.000000, 0.000039, 9.999998,-16.000024, 6.705977, 2.150212,-18.579192,-0.148979,-6.270850, 0.007147, 6.705977, 2.150212,-18.579192,-0.238571,-5.991434, 0.007147, 0.868223, 3.282026,-19.576885, 0.776222,-5.941838,-0.215144, 0.123727, 0.124233,14.701191,76.331381,124.684633, 0.124194, 0.109858,748214.891875,125.000000,76.331007,-0.000000,-0.000000,-0.000000,-0.000000,-0.000000,-0.000000,-0.000000,-0.000000,-10.422729,10.314362, 0.001932,-10.375275,-0.051452,,,,,
Sing,USC,191024 15:11:54.860, 0.000000, 0.000000, 0.000000, 0.000000, 0.000039, 9.999998,-16.999974, 7.488102, 2.014490,-20.402329,-0.239242,-6.363603,-0.052055, 7.488102, 2.014490,-20.402329,-0.323179,-6.051600,-0.052055, 0.752535, 3.284181,-21.564617, 0.685350,-6.015781,-0.263967, 0.123801, 0.124230,14.700274,76.368920,124.728378, 0.124264, 0.109893,748335.978125,125.000000,76.368674,-0.000000,-0.000000,-0.000000,-0.000000,-0.000000,-0.000000,-0.000000,-0.000000,-10.422729,10.314362, 0.001812,-10.375275,-0.057000,,,,,
Sing,USC,191024 15:12:12.268, 0.000000, 0.000000, 0.000000, 0.000000, 0.000039, 9.999998,-18.000013, 8.388955, 1.822477,-22.211043,-0.242720,-6.367311,-0.067285, 8.388955, 1.822477,-22.211043,-0.318657,-6.017771,-0.067285, 0.692585, 3.251516,-23.579109, 0.674581,-5.981682,-0.289933, 0.123767, 0.124227,14.705523,76.406612,124.695568, 0.124243, 0.109860,748366.858125,125.000000,76.406245,-0.000000,-0.000000,-0.000000,-0.000000,-0.000000,-0.000000,-0.000000,-0.000000,-10.422729,10.314362, 0.001944,-10.375275,-0.062843,,,,,
Sing,USC,191024 15:12:29.560, 0.000000, 0.000000, 0.000000, 0.000000, 0.000039, 9.999998,-19.000013, 9.261979, 1.733405,-23.618008,-0.260700,-6.361400,-0.153968, 9.261979, 1.733405,-23.618008,-0.332925,-5.975484,-0.153968, 0.650449, 3.315396,-25.202863, 0.620968,-5.942515,-0.376657, 0.123831, 0.124339,14.703198,76.443630,124.762559, 0.124348, 0.109915,748554.890625,125.000000,76.443409,-0.000000,-0.000000,-0.000000,-0.000000,-0.000000,-0.000000,-0.000000,-0.000000,-10.422729,10.314362, 0.001890,-10.375275,-0.069254,,,,,
Sing,USC,191024 15:12:46.957, 0.000000, 0.000000, 0.000000, 0.000000, 0.000039, 9.999998,-19.999982,10.171657, 1.489150,-24.883699, 0.009001,-6.582635,-0.071908,10.171657, 1.489150,-24.883699,-0.053047,-6.158815,-0.071908, 0.659310, 3.232816,-26.720645, 0.931286,-6.074460,-0.415483, 0.123860, 0.124343,14.703700,76.483116,124.781284, 0.124384, 0.109928,748616.711875,125.000000,76.482926,-0.000000,-0.000000,-0.000000,-0.000000,-0.000000,-0.000000,-0.000000,-0.000000,-10.422729,10.314362, 0.001874,-10.375275,-0.074972,,,,,
Sing,USC,191024 15:13:04.164, 0.000000, 0.000000, 0.000000, 0.000000, 0.000039, 9.999998,-21.000018,11.085538, 1.225394,-26.203544, 0.199754,-6.569645, 0.065824,11.085538, 1.225394,-26.203544, 0.148696,-6.107748, 0.065824, 0.602840, 3.131761,-28.299208, 1.150455,-5.989137,-0.371112, 0.123760, 0.124270,14.706013,76.519623,124.715783, 0.124257, 0.109866,748204.863125,125.000000,76.519330,-0.000000,-0.000000,-0.000000,-0.000000,-0.000000,-0.000000,-0.000000,-0.000000,-10.422729,10.314362, 0.001846,-10.375275,-0.081033,,,,,
Sing,USC,191024 15:13:21.462, 0.000000, 0.000000, 0.000000, 0.000000, 0.000039, 9.999998,-22.000016,12.091532, 1.046906,-27.487885, 0.366509,-6.539721, 0.179071,12.091532, 1.046906,-27.487885, 0.322887,-6.035906, 0.179071, 0.575045, 3.130674,-29.878975, 1.333711,-5.888139,-0.345721, 0.123746, 0.124296,14.704387,76.558950,124.735151, 0.124272, 0.109879,748135.880000,125.000000,76.558582,-0.000000,-0.000000,-0.000000,-0.000000,-0.000000,-0.000000,-0.000000,-0.000000,-10.422729,10.314362, 0.001850,-10.375275,-0.087613,,,,,
Sing,USC,191024 15:13:38.662, 0.000000, 0.000000, 0.000000, 0.000000, 0.000039, 9.999998,-22.999988,13.054555, 0.818672,-28.458204, 0.630983,-6.639186, 0.402199,13.054555, 0.818672,-28.458204, 0.596871,-6.095245, 0.402199, 0.583861, 3.073134,-31.163696, 1.672516,-5.898999,-0.273008, 0.123737, 0.124237,14.704894,76.594183,124.722451, 0.124249, 0.109865,748036.221875,125.000000,76.593884,-0.000000,-0.000000,-0.000000,-0.000000,-0.000000,-0.000000,-0.000000,-0.000000,-10.422729,10.314362, 0.001919,-10.375275,-0.094190,,,,,
Sing,USC,191024 15:13:55.958, 0.000000, 0.000000, 0.000000, 0.000000, 0.000039, 9.999998,-24.000023,13.980453, 0.688194,-29.256801, 0.877506,-6.682906, 0.614873,13.980453, 0.688194,-29.256801, 0.848831,-6.100388, 0.614873, 0.568749, 3.105419,-32.278785, 1.981494,-5.860310,-0.209157, 0.123518, 0.124059,14.703762,76.632244,124.617841, 0.124024, 0.109769,747269.360000,125.000000,76.631970,-0.000000,-0.000000,-0.000000,-0.000000,-0.000000,-0.000000,-0.000000,-0.000000,-10.422729,10.314362, 0.001842,-10.375275,-0.100474,,,,,
Sing,USC,191024 15:14:13.361, 0.000000, 0.000000, 0.000000, 0.000000, 0.000039, 9.999998,-25.000024,14.818821, 0.704207,-29.672424, 1.079115,-6.700705, 0.802116,14.818821, 0.704207,-29.672424, 1.049774,-6.083254, 0.802116, 0.575426, 3.266770,-33.008230, 2.233327,-5.808544,-0.156381, 0.123706, 0.124166,14.705878,76.670358,124.708775, 0.124203, 0.109845,747762.676875,125.000000,76.670106,-0.000000,-0.000000,-0.000000,-0.000000,-0.000000,-0.000000,-0.000000,-0.000000,-10.422729,10.314362, 0.001886,-10.375275,-0.106257,,,,,
Sing,USC,191024 15:14:30.567, 0.000000, 0.000000, 0.000000, 0.000000, 0.000039, 9.999998,-25.999972,15.757638, 0.552278,-30.370818, 1.254817,-6.852504, 0.985173,15.757638, 0.552278,-30.370818, 1.231805,-6.195936, 0.985173, 0.547836, 3.280173,-34.057819, 2.489214,-5.887904,-0.117964, 0.123834, 0.124240,14.705627,76.706128,124.761010, 0.124303, 0.109887,748011.065000,125.000000,76.705793,-0.000000,-0.000000,-0.000000,-0.000000,-0.000000,-0.000000,-0.000000,-0.000000,-10.422729,10.314362, 0.001842,-10.375275,-0.112547,,,,,
Sing,USC,191024 15:14:47.767, 0.000000, 0.000000, 0.000000, 0.000000, 0.000039, 9.999998,-27.000012,16.686096, 0.356792,-30.905933, 1.538788,-7.176845, 1.313063,16.686096, 0.356792,-30.905933, 1.523922,-6.481591, 1.313063, 0.555340, 3.248881,-34.969502, 2.936156,-6.118495,-0.022362, 0.123591, 0.124072,14.707870,76.742926,124.675154, 0.124138, 0.109808,747495.851250,125.000000,76.742572,-0.000000,-0.000000,-0.000000,-0.000000,-0.000000,-0.000000,-0.000000,-0.000000,-10.422729,10.314362, 0.001867,-10.375275,-0.118111,,,,,
Sing,USC,191024 15:15:05.167, 0.000000, 0.000000, 0.000000, 0.000000, 0.000039, 9.999998,-28.000013,17.658508, 0.322116,-31.633229, 1.494512,-7.214593, 1.535754,17.658508, 0.322116,-31.633229, 1.481091,-6.478822, 1.535754, 0.454370, 3.383589,-36.068445, 3.002199,-6.123206, 0.143051, 0.123779, 0.124262,14.708695,76.777464,124.715754, 0.124220, 0.109840,747707.731250,125.000000,76.777173,-0.000000,-0.000000,-0.000000,-0.000000,-0.000000,-0.000000,-0.000000,-0.000000,-10.422729,10.314362, 0.001898,-10.375275,-0.125015,,,,,
Sing,USC,191024 15:15:22.560, 0.000000, 0.000000, 0.000000, 0.000000, 0.000039, 9.999997,-28.999986,18.640305, 0.223268,-32.089961, 1.708462,-7.435665, 1.846252,18.640305, 0.223268,-32.089961, 1.699159,-6.658986, 1.846252, 0.464075, 3.456731,-36.947423, 3.369961,-6.262766, 0.242920, 0.123860, 0.124325,14.708681,76.814896,124.760871, 0.124306, 0.109876,747914.711250,125.000000,76.814641,-0.000000,-0.000000,-0.000000,-0.000000,-0.000000,-0.000000,-0.000000,-0.000000,-10.422729,10.314362, 0.001907,-10.375275,-0.132298,,,,,
Sing,USC,191024 15:15:39.762, 0.000000, 0.000000, 0.000000, 0.000000, 0.000039, 9.999998,-30.000025,19.513193, 0.329434,-32.773794, 1.530232,-7.199689, 1.877368,19.513193, 0.329434,-32.773794, 1.516505,-6.386640, 1.877368, 0.205734, 3.712859,-37.962707, 3.192510,-6.026275, 0.324599, 0.123473, 0.123950,14.708735,76.850462,124.606826, 0.123991, 0.109737,746902.161250,125.000000,76.850205,-0.000000,-0.000000,-0.000000,-0.000000,-0.000000,-0.000000,-0.000000,-0.000000,-10.422729,10.314362, 0.001933,-10.375275,-0.140171,,,,,
Sing,USC,191024 15:15:56.960, 0.000000, 0.000000, 0.000000, 0.000000, 0.000039, 9.999998,-31.000018,20.858344, 0.332676,-33.756554, 1.576667,-7.476061, 1.986475,20.858344, 0.332676,-33.756554, 1.562806,-6.606964, 1.986475, 0.172027, 3.949634,-39.484895, 3.325763,-6.235211, 0.319168, 0.123435, 0.123931,14.709218,76.882960,124.606709, 0.123989, 0.109733,746855.663750,125.000000,76.882681,-0.000000,-0.000000,-0.000000,-0.000000,-0.000000,-0.000000,-0.000000,-0.000000,-10.422729,10.314362, 0.001921,-10.375275,-0.146257,,,,,
Sing,USC,191024 15:16:14.363, 0.000000, 0.000000, 0.000000, 0.000000, 0.000039, 9.999998,-31.999979,22.157525, 0.290498,-34.695802, 1.562599,-7.639501, 2.074593,22.157525, 0.290498,-34.695802, 1.550495,-6.716271, 2.074593, 0.076437, 4.133699,-40.960294, 3.383337,-6.344995, 0.332173, 0.123630, 0.124128,14.707800,76.919552,124.709265, 0.124167, 0.109820,747275.436250,125.000000,76.919182,-0.000000,-0.000000,-0.000000,-0.000000,-0.000000,-0.000000,-0.000000,-0.000000,-10.422729,10.314362, 0.001916,-10.375275,-0.154599,,,,,
Sing,USC,191024 15:16:31.567, 0.000000, 0.000000, 0.000000, 0.000000, 0.000039, 9.999998,-33.000027,23.284514, 0.151816,-35.214372, 1.646070,-7.840583, 2.218160,23.284514, 0.151816,-35.214372, 1.639744,-6.870395, 2.218160, 0.030111, 4.192821,-42.007892, 3.562970,-6.481279, 0.331031, 0.123245, 0.123699,14.708805,76.956543,124.495051, 0.123746, 0.109627,745981.140000,125.000000,76.956230,-0.000000,-0.000000,-0.000000,-0.000000,-0.000000,-0.000000,-0.000000,-0.000000,-10.422729,10.314362, 0.001896,-10.375275,-0.161823,,,,,
Sing,USC,191024 15:16:48.859, 0.000000, 0.000000, 0.000000, 0.000000, 0.000039, 9.999997,-34.000027,24.409540, 0.096613,-35.654909, 1.540288,-8.056167, 2.261995,24.409540, 0.096613,-35.654909, 1.536263,-7.039103, 2.261995,-0.022911, 4.333816,-42.992151, 3.532517,-6.665394, 0.345744, 0.123853, 0.124399,14.709859,76.994305,124.824405, 0.124392, 0.109913,747857.991250,125.000000,76.994067,-0.000000,-0.000000,-0.000000,-0.000000,-0.000000,-0.000000,-0.000000,-0.000000,-10.422729,10.314362, 0.001861,-10.375275,-0.169665,,,,,
Sing,USC,191024 15:17:06.165, 0.000000, 0.000000, 0.000000, 0.000000, 0.000039, 9.999998,-34.997897,25.185646,-0.242435,-35.673820, 1.763813,-8.160830, 2.462989,25.185646,-0.242435,-35.673820, 1.773914,-7.111428, 2.462989,-0.108108, 4.134689,-43.472846, 3.855286,-6.695352, 0.307389, 0.123918, 0.124434,14.710877,77.034132,124.869567, 0.124483, 0.109949,748093.445625,125.000000,77.033933,-0.000000,-0.000000,-0.000000,-0.000000,-0.000000,-0.000000,-0.000000,-0.000000,-10.422729,10.314362, 0.001904,-10.375275,-0.175561,,,,,
