Type,Units,Time,X Position,Y Position,Y Encoder,Z Position,Z Encoder,Yaw,Pitch,WAFBC Drag,WAFBC Side,WAFBC Lift,WAFBC Roll,WAFBC Pitch,WAFBC Yaw,WAFMC Drag,WAFMC Side,WAFMC Lift,WAFMC Roll,WAFMC Pitch,WAFMC Yaw,BAFMC Axial,BAFMC Side,BAFMC Normal,BAFMC Roll,BAFMC Pitch,BAFMC Yaw,DPT250,DPT251,PT250,TE250,Velocity,Dynamic Pressure,Mach,Reynolds Number per ft,Velocity Setpoint,Temperature Setpoint,cDAQ AI0,cDAQ AI1,cDAQ AI2,cDAQ AI3,cDAQ AI4,cDAQ AI5,cDAQ AI6,cDAQ AI7,cRIO AI0,cRIO AI1,cRIO AI2,cRIO AI3,Drag (raw),Side (raw),Lift (raw),Roll (raw),Pitch (raw),Yaw (raw)
Type,USC / SI,Time,Inches / Millimeters,Inches / Millimeters,Inches / Millimeters,Inches / Millimeters,Inches / Millimeters,Degrees / Degrees,Degrees / Degrees,lb / N,lb / N,lb / N,ft-lb / N-m,ft-lb / N-m,ft-lb / N-m,lb / N,lb / N,lb / N,ft-lb / N-m,ft-lb / N-m,ft-lb / N-m,lb / N,lb / N,lb / N,ft-lb / N-m,ft-lb / N-m,ft-lb / N-m,PSId / Pascals,PSId / Pascals,PSIa / Pascals,F / F,Ft/s / m/s,PSId / Pascals, / ,1/ft / 1/ft,ft/s / m/s,F / F, / , / , / , / , / , / , / , / , / , / , / , / , / , / , / , / , / , / 
Sing,USC,191010 14:54:58.606, 0.000000, 0.000000, 0.000039, 0.000000, 0.000000,-0.000001, 5.000007, 3.721101,-0.025160,16.159019,-0.094057,-3.147254, 0.097654, 3.721101,-0.025160,16.159019,-0.093008,-2.992208, 0.097654, 2.298587,-0.025160,16.421844,-0.101165,-2.992208, 0.089177, 0.128783, 0.129307,14.655276,52.853021,124.581134, 0.129268, 0.112253,806958.772500,125.000000,59.999969,-0.000000,-0.000000,-0.000000,-0.000000,-0.000000,-0.000000,-0.000000,-0.000000,-10.422729,10.314362, 0.001967,-10.375275,-0.026158,,,,,
Sing,USC,191010 14:55:15.904, 0.000000, 0.000000, 0.000039, 0.000000, 0.000000,-0.000001, 4.000011, 3.437339,-0.055732,14.500972,-0.035900,-3.249859, 0.121601, 3.437339,-0.055732,14.500972,-0.033578,-3.106637, 0.121601, 2.417426,-0.055732,14.705426,-0.041979,-3.106637, 0.118963, 0.129495, 0.130098,14.657000,52.860932,124.953403, 0.130060, 0.112588,809479.061875,125.000000,59.999969,-0.000000,-0.000000,-0.000000,-0.000000,-0.000000,-0.000000,-0.000000,-0.000000,-10.422729,10.314362, 0.001946,-10.375275,-0.023332,,,,,
Sing,USC,191010 14:55:32.998, 0.000000, 0.000000, 0.000039, 0.000000, 0.000000,-0.000001, 2.999976, 3.231663,-0.045767,12.746714,-0.025506,-3.417799, 0.120325, 3.231663,-0.045767,12.746714,-0.023599,-3.283146, 0.120325, 2.560128,-0.045767,12.898376,-0.029864,-3.283146, 0.118926, 0.129774, 0.130327,14.657864,52.854640,125.051683, 0.130264, 0.112677,810116.540000,125.000000,59.999969,-0.000000,-0.000000,-0.000000,-0.000000,-0.000000,-0.000000,-0.000000,-0.000000,-10.422729,10.314362, 0.001950,-10.375275,-0.021239,,,,,
Sing,USC,191010 14:55:50.210, 0.000000, 0.000000, 0.000039, 0.000000, 0.000000,-0.000001, 1.999978, 3.043087,-0.017222,11.064941, 0.021257,-3.551608, 0.117301, 3.043087,-0.017222,11.064941, 0.021974,-3.424812, 0.117301, 2.655077,-0.017222,11.164401, 0.017867,-3.424812, 0.117996, 0.129826, 0.130350,14.657202,52.843326,125.094157, 0.130355, 0.112716,810421.023750,125.000000,59.999969,-0.000000,-0.000000,-0.000000,-0.000000,-0.000000,-0.000000,-0.000000,-0.000000,-10.422729,10.314362, 0.001986,-10.375275,-0.019879,,,,,
Sing,USC,191010 14:56:07.398, 0.000000, 0.000000, 0.000039, 0.000000, 0.000000,-0.000001, 0.999977, 2.898889, 0.020393, 9.415155, 0.057305,-3.730289, 0.123775, 2.898889, 0.020393, 9.415155, 0.056455,-3.609501, 0.123775, 2.734134, 0.020393, 9.464313, 0.054288,-3.609501, 0.124741, 0.129780, 0.130340,14.660097,52.830727,125.075730, 0.130339, 0.112701,810457.810000,125.000000,59.999969,-0.000000,-0.000000,-0.000000,-0.000000,-0.000000,-0.000000,-0.000000,-0.000000,-10.422729,10.314362, 0.002019,-10.375275,-0.018906,,,,,
Sing,USC,191010 14:56:24.704, 0.000000, 0.000000, 0.000039, 0.000000, 0.000000,-0.000001,-0.000005, 2.811954, 0.083899, 7.810223,-0.002342,-3.951585, 0.067871, 2.811954, 0.083899, 7.810223,-0.005839,-3.834421, 0.067871, 2.811955, 0.083899, 7.810223,-0.005839,-3.834421, 0.067871, 0.129801, 0.130310,14.655973,52.802854,125.102702, 0.130372, 0.112729,810520.682500,125.000000,59.999969,-0.000000,-0.000000,-0.000000,-0.000000,-0.000000,-0.000000,-0.000000,-0.000000,-10.422729,10.314362, 0.001935,-10.375275,-0.018467,,,,,
Sing,USC,191010 14:56:41.903, 0.000000, 0.000000, 0.000030, 0.000000, 0.000000,-0.000001,-1.000015, 2.767287, 0.137130, 6.242311,-0.094552,-4.169106, 0.008381, 2.767287, 0.137130, 6.242311,-0.100266,-4.053803, 0.008381, 2.875811, 0.137130, 6.193064,-0.100105,-4.053803, 0.010130, 0.129840, 0.130423,14.655797,52.764196,125.058535, 0.130289, 0.112693,810341.903125,125.000000,59.999969,-0.000000,-0.000000,-0.000000,-0.000000,-0.000000,-0.000000,-0.000000,-0.000000,-10.422729,10.314362, 0.001939,-10.375275,-0.018224,,,,,
Sing,USC,191010 14:56:59.098, 0.000000, 0.000000, 0.000039, 0.000000, 0.000000,-0.000001,-1.999985, 2.710700, 0.182902, 4.583859,-0.138443,-4.304115,-0.031255, 2.710700, 0.182902, 4.583859,-0.146064,-4.191170,-0.031255, 2.869022, 0.182902, 4.486465,-0.147066,-4.191170,-0.026139, 0.129716, 0.130235,14.654592,52.735891,125.036859, 0.130228, 0.112677,810137.565000,125.000000,59.999969,-0.000000,-0.000000,-0.000000,-0.000000,-0.000000,-0.000000,-0.000000,-0.000000,-10.422729,10.314362, 0.001958,-10.375275,-0.018369,,,,,
Sing,USC,191010 14:57:16.193, 0.000000, 0.000000, 0.000039, 0.000000, 0.000000,-0.000001,-3.000018, 2.735325, 0.209790, 2.850624,-0.155151,-4.482379,-0.042299, 2.735325, 0.209790, 2.850624,-0.163893,-4.368407,-0.042299, 2.880767, 0.209790, 2.703561,-0.165882,-4.368407,-0.033663, 0.129667, 0.130222,14.655087,52.716116,125.000303, 0.130177, 0.112646,810078.759375,125.000000,59.999969,-0.000000,-0.000000,-0.000000,-0.000000,-0.000000,-0.000000,-0.000000,-0.000000,-10.422729,10.314362, 0.001927,-10.375275,-0.018585,,,,,
Sing,USC,191010 14:57:33.195, 0.000000, 0.000000, 0.000039, 0.000000, 0.000000,-0.000001,-4.000013, 2.763431, 0.230392, 1.115861,-0.145010,-4.615085,-0.053071, 2.763431, 0.230392, 1.115861,-0.154610,-4.499942,-0.053071, 2.834538, 0.230392, 0.920375,-0.157935,-4.499942,-0.042156, 0.129587, 0.130155,14.655370,52.690472,124.984893, 0.130149, 0.112635,810037.080000,125.000000,59.999969,-0.000000,-0.000000,-0.000000,-0.000000,-0.000000,-0.000000,-0.000000,-0.000000,-10.422729,10.314362, 0.001963,-10.375275,-0.019011,,,,,
Sing,USC,191010 14:57:50.194, 0.000000, 0.000000, 0.000039, 0.000000, 0.000000,-0.000001,-4.999978, 2.806125, 0.256015,-0.612073,-0.159632,-4.756087,-0.080590, 2.806125, 0.256015,-0.612073,-0.170300,-4.639165,-0.080590, 2.742101, 0.256015,-0.854312,-0.176676,-4.639165,-0.065441, 0.129616, 0.130178,14.654423,52.663574,125.015133, 0.130214, 0.112665,810276.319375,125.000000,59.999969,-0.000000,-0.000000,-0.000000,-0.000000,-0.000000,-0.000000,-0.000000,-0.000000,-10.422729,10.314362, 0.001969,-10.375275,-0.019633,,,,,
Sing,USC,191010 14:58:07.298, 0.000000, 0.000000, 0.000039, 0.000000, 0.000000,-0.000001,-6.000021, 2.915108, 0.274161,-2.334930,-0.155627,-4.915965,-0.073851, 2.915108, 0.274161,-2.334930,-0.167051,-4.794502,-0.073851, 2.655071, 0.274161,-2.626852,-0.173855,-4.794502,-0.055984, 0.129624, 0.130219,14.653425,52.630038,125.010900, 0.130204, 0.112665,810285.464375,125.000000,59.999969,-0.000000,-0.000000,-0.000000,-0.000000,-0.000000,-0.000000,-0.000000,-0.000000,-10.422729,10.314362, 0.001934,-10.375275,-0.020460,,,,,
Sing,USC,191010 14:58:24.300, 0.000000, 0.000000, 0.000039, 0.000000, 0.000000,-0.000001,-7.000020, 3.038968, 0.282317,-4.034091,-0.169485,-5.097824,-0.081578, 3.038968, 0.282317,-4.034091,-0.181248,-4.971201,-0.081578, 2.524682, 0.282317,-4.374381,-0.189840,-4.971201,-0.058881, 0.129555, 0.130005,14.653669,52.591706,124.945964, 0.130076, 0.112611,809957.290000,125.000000,59.999969,-0.000000,-0.000000,-0.000000,-0.000000,-0.000000,-0.000000,-0.000000,-0.000000,-10.422729,10.314362, 0.001941,-10.375275,-0.021419,,,,,
Sing,USC,191010 14:58:41.501, 0.000000, 0.000000, 0.000039, 0.000000, 0.000000,-0.000001,-8.000019, 3.185719, 0.311332,-5.741026,-0.215079,-5.290462,-0.116965, 3.185719, 0.311332,-5.741026,-0.228051,-5.157724,-0.116965, 2.355718, 0.311332,-6.128521,-0.242110,-5.157724,-0.084088, 0.129512, 0.130096,14.654424,52.560773,124.937540, 0.130072, 0.112606,810023.399375,125.000000,59.999969,-0.000000,-0.000000,-0.000000,-0.000000,-0.000000,-0.000000,-0.000000,-0.000000,-10.422729,10.314362, 0.001888,-10.375275,-0.022553,,,,,
Sing,USC,191010 14:58:58.499, 0.000000, 0.000000, 0.000039, 0.000000, 0.000000,-0.000001,-9.000016, 3.394790, 0.302549,-7.475378,-0.213552,-5.480864,-0.123187, 3.394790, 0.302549,-7.475378,-0.226158,-5.339414,-0.123187, 2.183585, 0.302548,-7.914406,-0.242644,-5.339414,-0.086291, 0.129563, 0.130106,14.654026,52.526420,124.947159, 0.130098, 0.112619,810168.386250,125.000000,59.999969,-0.000000,-0.000000,-0.000000,-0.000000,-0.000000,-0.000000,-0.000000,-0.000000,-10.422729,10.314362, 0.001904,-10.375275,-0.024049,,,,,
Sing,USC,191010 14:59:15.493, 0.000000, 0.000000, 0.000039, 0.000000, 0.000000,-0.000001,-10.000016, 3.678457, 0.293442,-9.225615,-0.196383,-5.691803,-0.117087, 3.678457, 0.293442,-9.225615,-0.208610,-5.538533,-0.117087, 2.020558, 0.293442,-9.724216,-0.225772,-5.538533,-0.079084, 0.129479, 0.129996,14.654711,52.498414,124.900549, 0.130021, 0.112580,810020.018750,125.000000,59.999969,-0.000000,-0.000000,-0.000000,-0.000000,-0.000000,-0.000000,-0.000000,-0.000000,-10.422729,10.314362, 0.001937,-10.375275,-0.025944,,,,,
Sing,USC,191010 14:59:32.694, 0.000000, 0.000000, 0.000039, 0.000000, 0.000000,-0.000001,-10.999984, 3.936044, 0.304029,-10.896801,-0.192815,-5.817342,-0.118391, 3.936044, 0.304029,-10.896801,-0.205482,-5.653340,-0.118391, 1.784523, 0.304029,-11.447629,-0.224297,-5.653340,-0.077007, 0.129418, 0.130013,14.655346,52.456749,124.888159, 0.130006, 0.112573,810058.264375,125.000000,59.999969,-0.000000,-0.000000,-0.000000,-0.000000,-0.000000,-0.000000,-0.000000,-0.000000,-10.422729,10.314362, 0.001946,-10.375275,-0.027988,,,,,
Sing,USC,191010 14:59:49.695, 0.000000, 0.000000, 0.000039, 0.000000, 0.000000,-0.000001,-12.000017, 4.284113, 0.313353,-12.578928,-0.169611,-5.978087,-0.108367, 4.284113, 0.313353,-12.578928,-0.182668,-5.799583,-0.108367, 1.575185, 0.313353,-13.194765,-0.201207,-5.799583,-0.068019, 0.129441, 0.129924,14.653648,52.409335,124.862675, 0.129953, 0.112556,809953.487500,125.000000,59.999969,-0.000000,-0.000000,-0.000000,-0.000000,-0.000000,-0.000000,-0.000000,-0.000000,-10.422729,10.314362, 0.001914,-10.375275,-0.030495,,,,,
Sing,USC,191010 15:00:06.895, 0.000000, 0.000000, 0.000039, 0.000000, 0.000000,-0.000001,-13.000014, 4.701047, 0.331372,-14.390914,-0.175996,-6.126066,-0.119083, 4.701047, 0.331372,-14.390914,-0.189803,-5.930189,-0.119083, 1.343304, 0.331372,-15.079582,-0.211727,-5.930189,-0.073335, 0.129405, 0.129890,14.653847,52.376274,124.817820, 0.129874, 0.112519,809795.473125,125.000000,59.999969,-0.000000,-0.000000,-0.000000,-0.000000,-0.000000,-0.000000,-0.000000,-0.000000,-10.422729,10.314362, 0.001884,-10.375275,-0.033545,,,,,
Sing,USC,191010 15:00:24.096, 0.000000, 0.000000, 0.000036, 0.000000, 0.000000,-0.000001,-13.999979, 5.214774, 0.352628,-16.287647,-0.172712,-6.242345,-0.151247, 5.214774, 0.352628,-16.287647,-0.187404,-6.025062,-0.151247, 1.119541, 0.352628,-17.065401,-0.218428,-6.025062,-0.101416, 0.129403, 0.129975,14.656284,52.339031,124.834479, 0.129929, 0.112538,810077.803750,125.000000,59.999969,-0.000000,-0.000000,-0.000000,-0.000000,-0.000000,-0.000000,-0.000000,-0.000000,-10.422729,10.314362, 0.001972,-10.375275,-0.037396,,,,,
Sing,USC,191010 15:00:41.198, 0.000000, 0.000000, 0.000000, 0.000000, 0.000000,-0.000001,-15.000023, 5.861116, 0.355755,-18.226901,-0.139959,-6.276798,-0.153622, 5.861116, 0.355755,-18.226901,-0.154782,-6.032586,-0.153622, 0.943927, 0.355755,-19.122804,-0.189268,-6.032586,-0.108327, 0.129212, 0.129694,14.654806,52.308705,124.756847, 0.129768, 0.112471,809609.348750,125.000000,59.999969,-0.000000,-0.000000,-0.000000,-0.000000,-0.000000,-0.000000,-0.000000,-0.000000,-10.422729,10.314362, 0.001941,-10.375275,-0.042319,,,,,
Sing,USC,191010 15:00:58.195, 0.000000, 0.000000, 0.000039, 0.000000, 0.000000,-0.000001,-16.000025, 6.612317, 0.345025,-20.122697,-0.109133,-6.297418,-0.152992, 6.612317, 0.345025,-20.122697,-0.123509,-6.021905,-0.152992, 0.809590, 0.345025,-21.165780,-0.160895,-6.021905,-0.113022, 0.129095, 0.129656,14.654000,52.279216,124.709936, 0.129672, 0.112432,809352.356875,125.000000,59.999969,-0.000000,-0.000000,-0.000000,-0.000000,-0.000000,-0.000000,-0.000000,-0.000000,-10.422729,10.314362, 0.001942,-10.375275,-0.047967,,,,,
Sing,USC,191010 15:01:15.494, 0.000000, 0.000000, 0.000039, 0.000000, 0.000000,-0.000001,-17.000019, 7.465706, 0.326744,-22.010815,-0.097604,-6.341843,-0.140887, 7.465706, 0.326744,-22.010815,-0.111219,-6.030771,-0.140887, 0.704143, 0.326743,-23.231809,-0.147551,-6.030771,-0.102213, 0.129026, 0.129559,14.652992,52.256254,124.644666, 0.129529, 0.112376,808912.507500,125.000000,59.999969,-0.000000,-0.000000,-0.000000,-0.000000,-0.000000,-0.000000,-0.000000,-0.000000,-10.422729,10.314362, 0.001925,-10.375275,-0.054283,,,,,
Sing,USC,191010 15:01:32.797, 0.000000, 0.000000, 0.000039, 0.000000, 0.000000,-0.000001,-18.000014, 8.392698, 0.368837,-23.854609,-0.152050,-6.424308,-0.207300, 8.392698, 0.368837,-23.854609,-0.167418,-6.074612,-0.207300, 0.610445, 0.368837,-25.280567,-0.223283,-6.074612,-0.145418, 0.129011, 0.129541,14.656072,52.236616,124.654375, 0.129581, 0.112387,809196.020000,125.000000,59.999969,-0.000000,-0.000000,-0.000000,-0.000000,-0.000000,-0.000000,-0.000000,-0.000000,-10.422729,10.314362, 0.001999,-10.375275,-0.060853,,,,,
Sing,USC,191010 15:01:49.998, 0.000000, 0.000000, 0.000039, 0.000000, 0.000000,-0.000001,-19.000013, 9.377187, 0.404918,-25.611650,-0.212818,-6.465299,-0.266653, 9.377187, 0.404918,-25.611650,-0.229690,-6.074582,-0.266653, 0.527960, 0.404918,-27.269205,-0.303990,-6.074582,-0.177345, 0.129014, 0.129569,14.656015,52.207471,124.647540, 0.129571, 0.112384,809218.302500,125.000000,59.999969,-0.000000,-0.000000,-0.000000,-0.000000,-0.000000,-0.000000,-0.000000,-0.000000,-10.422729,10.314362, 0.001959,-10.375275,-0.068006,,,,,
Sing,USC,191010 15:02:07.195, 0.000000, 0.000000, 0.000039, 0.000000, 0.000000,-0.000001,-19.999985,10.444975, 0.372718,-27.352811,-0.137695,-6.465632,-0.226468,10.444975, 0.372718,-27.352811,-0.153225,-6.030425,-0.226468, 0.459861, 0.372718,-29.275626,-0.221441,-6.030425,-0.160403, 0.129021, 0.129635,14.656359,52.183191,124.640839, 0.129573, 0.112380,809301.680625,125.000000,59.999969,-0.000000,-0.000000,-0.000000,-0.000000,-0.000000,-0.000000,-0.000000,-0.000000,-10.422729,10.314362, 0.002029,-10.375275,-0.075551,,,,,
Sing,USC,191010 15:02:24.296, 0.000000, 0.000000, 0.000039, 0.000000, 0.000000,-0.000001,-21.000020,11.549287, 0.437627,-29.026188,-0.214676,-6.487498,-0.294256,11.549287, 0.437627,-29.026188,-0.232911,-6.006278,-0.294256, 0.380122, 0.437627,-31.237176,-0.322893,-6.006278,-0.191243, 0.129160, 0.129737,14.658215,52.176094,124.717728, 0.129748, 0.112450,809907.306875,125.000000,59.999969,-0.000000,-0.000000,-0.000000,-0.000000,-0.000000,-0.000000,-0.000000,-0.000000,-10.422729,10.314362, 0.001926,-10.375275,-0.083337,,,,,
Sing,USC,191010 15:02:41.495, 0.000000, 0.000000, 0.000039, 0.000000, 0.000000,-0.000001,-22.000015,12.770826, 0.356180,-30.624885,-0.129882,-6.699067,-0.213067,12.770826, 0.356180,-30.624885,-0.144723,-6.166950,-0.213067, 0.368612, 0.356180,-33.178934,-0.214000,-6.166950,-0.143337, 0.129073, 0.129590,14.657630,52.173946,124.648376, 0.129602, 0.112388,809447.165000,125.000000,59.999969,-0.000000,-0.000000,-0.000000,-0.000000,-0.000000,-0.000000,-0.000000,-0.000000,-10.422729,10.314362, 0.001983,-10.375275,-0.090706,,,,,
Sing,USC,191010 15:02:58.694, 0.000000, 0.000000, 0.000039, 0.000000, 0.000000,-0.000001,-22.999984,13.983510, 0.331307,-32.066565,-0.089890,-6.786363,-0.185302,13.983510, 0.331307,-32.066565,-0.103695,-6.203717,-0.185302, 0.342493, 0.331307,-34.981221,-0.167855,-6.203717,-0.130056, 0.129306, 0.129858,14.657411,52.166865,124.763588, 0.129832, 0.112493,810140.705625,125.000000,59.999969,-0.000000,-0.000000,-0.000000,-0.000000,-0.000000,-0.000000,-0.000000,-0.000000,-10.422729,10.314362, 0.001984,-10.375275,-0.099224,,,,,
Sing,USC,191010 15:03:15.793, 0.000000, 0.000000, 0.000039, 0.000000, 0.000000,-0.000001,-24.000026,15.225424, 0.408091,-33.599650,-0.298061,-6.798726,-0.286293,15.225424, 0.408091,-33.599650,-0.315064,-6.164334,-0.286293, 0.242891, 0.408091,-36.887547,-0.404272,-6.164334,-0.133393, 0.129057, 0.129623,14.658343,52.153515,124.635714, 0.129587, 0.112379,809460.993750,125.000000,59.999969,-0.000000,-0.000000,-0.000000,-0.000000,-0.000000,-0.000000,-0.000000,-0.000000,-10.422729,10.314362, 0.001942,-10.375275,-0.107605,,,,,
Sing,USC,191010 15:03:32.802, 0.000000, 0.000000, 0.000039, 0.000000, 0.000000,-0.000001,-25.000027,16.591075, 0.418163,-34.950946,-0.327553,-6.981000,-0.279129,16.591075, 0.418163,-34.950946,-0.344976,-6.289705,-0.279129, 0.265694, 0.418162,-38.688006,-0.430619,-6.289705,-0.107184, 0.128868, 0.129405,14.658498,52.151894,124.525259, 0.129359, 0.112280,808754.890000,125.000000,59.999969,-0.000000,-0.000000,-0.000000,-0.000000,-0.000000,-0.000000,-0.000000,-0.000000,-10.422729,10.314362, 0.001933,-10.375275,-0.116617,,,,,
Sing,USC,191010 15:03:49.894, 0.000000, 0.000000, 0.000039, 0.000000, 0.000000,-0.000001,-26.000021,18.007020, 0.367390,-36.374802,-0.186508,-7.089582,-0.195233,18.007020, 0.367390,-36.374802,-0.201817,-6.339289,-0.195233, 0.238924, 0.367389,-40.587214,-0.266976,-6.339289,-0.087004, 0.129092, 0.129648,14.659947,52.140777,124.643973, 0.129613, 0.112388,809582.405625,125.000000,59.999969,-0.000000,-0.000000,-0.000000,-0.000000,-0.000000,-0.000000,-0.000000,-0.000000,-10.422729,10.314362, 0.001933,-10.375275,-0.126383,,,,,
Sing,USC,191010 15:04:07.101, 0.000000, 0.000000, 0.000039, 0.000000, 0.000000,-0.000001,-27.000012,19.377585, 0.406839,-37.309217,-0.019940,-7.273365,-0.091837,19.377585, 0.406839,-37.309217,-0.036891,-6.465965,-0.091837, 0.327515, 0.406839,-42.039995,-0.074564,-6.465965,-0.065079, 0.128853, 0.129379,14.658621,52.122243,124.566592, 0.129453, 0.112320,809106.560625,125.000000,59.999969,-0.000000,-0.000000,-0.000000,-0.000000,-0.000000,-0.000000,-0.000000,-0.000000,-10.422729,10.314362, 0.001974,-10.375275,-0.134967,,,,,
Sing,USC,191010 15:04:24.295, 0.000000, 0.000000, 0.000039, 0.000000, 0.000000,-0.000001,-28.000014,20.487534, 0.691279,-37.561815, 0.566593,-7.501124, 0.275397,20.487534, 0.691279,-37.561815, 0.537790,-6.647477, 0.275397, 0.455205, 0.691278,-42.783430, 0.604131,-6.647477,-0.009316, 0.128725, 0.129193,14.659736,52.115533,124.473261, 0.129276, 0.112237,808617.842500,125.000000,59.999969,-0.000000,-0.000000,-0.000000,-0.000000,-0.000000,-0.000000,-0.000000,-0.000000,-10.422729,10.314362, 0.001918,-10.375275,-0.142760,,,,,
Sing,USC,191010 15:04:41.490, 0.000000, 0.000000, 0.000039, 0.000000, 0.000000,-0.000001,-28.999984,21.657917, 0.661402,-38.083922, 0.593288,-7.596336, 0.346601,21.657917, 0.661402,-38.083922, 0.565730,-6.693923, 0.346601, 0.479002, 0.661402,-43.808915, 0.662833,-6.693923, 0.028873, 0.128871, 0.129403,14.660568,52.106266,124.551782, 0.129441, 0.112309,809152.831875,125.000000,59.999969,-0.000000,-0.000000,-0.000000,-0.000000,-0.000000,-0.000000,-0.000000,-0.000000,-10.422729,10.314362, 0.001929,-10.375275,-0.150801,,,,,
Sing,USC,191010 15:04:58.699, 0.000000, 0.000000, 0.000039, 0.000000, 0.000000,-0.000001,-30.000021,23.520887, 0.483471,-40.119338, 0.436671,-7.498299, 0.286098,23.520887, 0.483471,-40.119338, 0.416527,-6.518261, 0.286098, 0.309999, 0.483471,-46.504809, 0.503771,-6.518262, 0.039504, 0.129732, 0.130315,14.661944,52.101325,124.950253, 0.130283, 0.112668,811820.124375,125.000000,59.999969,-0.000000,-0.000000,-0.000000,-0.000000,-0.000000,-0.000000,-0.000000,-0.000000,-10.422729,10.314362, 0.001978,-10.375275,-0.163304,,,,,
Sing,USC,191010 15:05:15.794, 0.000000, 0.000000, 0.000039, 0.000000, 0.000000,-0.000001,-31.000016,25.473409, 0.258901,-42.540546, 0.033206,-7.525092, 0.070055,25.473409, 0.258901,-42.540546, 0.022419,-6.463701, 0.070055,-0.075041, 0.258900,-49.584141, 0.055297,-6.463701, 0.048502, 0.129495, 0.129982,14.661948,52.105608,124.808319, 0.129995, 0.112540,810944.349375,125.000000,59.999969,-0.000000,-0.000000,-0.000000,-0.000000,-0.000000,-0.000000,-0.000000,-0.000000,-10.422729,10.314362, 0.001924,-10.375275,-0.175199,,,,,
Sing,USC,191010 15:05:32.996, 0.000000, 0.000000, 0.000039, 0.000000, 0.000000,-0.000001,-31.999976,26.953706, 0.158624,-43.841790,-0.004220,-7.446088, 0.032483,26.953706, 0.158624,-43.841790,-0.010829,-6.323017, 0.032483,-0.374549, 0.158624,-51.463235, 0.008029,-6.323017, 0.033286, 0.129298, 0.129829,14.662879,52.115519,124.726647, 0.129827, 0.112465,810415.593125,125.000000,59.999969,-0.000000,-0.000000,-0.000000,-0.000000,-0.000000,-0.000000,-0.000000,-0.000000,-10.422729,10.314362, 0.001966,-10.375275,-0.185352,,,,,
Sing,USC,191010 15:05:49.993, 0.000000, 0.000000, 0.000039, 0.000000, 0.000000,-0.000001,-33.000022,28.481287, 0.282371,-44.765482,-0.097459,-7.604708,-0.005872,28.481287, 0.282371,-44.765482,-0.109226,-6.417987,-0.005872,-0.494632, 0.282370,-53.055513,-0.094802,-6.417987, 0.054564, 0.129147, 0.129668,14.662767,52.111216,124.648318, 0.129663, 0.112395,809906.433125,125.000000,59.999969,-0.000000,-0.000000,-0.000000,-0.000000,-0.000000,-0.000000,-0.000000,-0.000000,-10.422729,10.314362, 0.001941,-10.375275,-0.195835,,,,,
Sing,USC,191010 15:06:07.093, 0.000000, 0.000000, 0.000039, 0.000000, 0.000000,-0.000001,-34.000029,29.873292, 0.378441,-45.280784,-0.017996,-7.686974, 0.055383,29.873292, 0.378441,-45.280784,-0.033765,-6.442255, 0.055383,-0.554639, 0.378441,-54.244405, 0.002977,-6.442255, 0.064796, 0.129142, 0.129664,14.662100,52.118361,124.649916, 0.129654, 0.112396,809831.291875,125.000000,59.999969,-0.000000,-0.000000,-0.000000,-0.000000,-0.000000,-0.000000,-0.000000,-0.000000,-10.422729,10.314362, 0.001932,-10.375275,-0.205690,,,,,
Sing,USC,191010 15:06:24.193, 0.000000, 0.000000, 0.000039, 0.000000, 0.000000,-0.000001,-34.998895,31.008815, 0.072271,-45.370870, 0.283050,-7.860527, 0.324099,31.008815, 0.072271,-45.370870, 0.280039,-6.568493, 0.324099,-0.621661, 0.072270,-54.951573, 0.415289,-6.568493, 0.104883, 0.129114, 0.129641,14.663510,52.107899,124.634596, 0.129643, 0.112383,809870.855000,125.000000,59.999969,-0.000000,-0.000000,-0.000000,-0.000000,-0.000000,-0.000000,-0.000000,-0.000000,-10.422729,10.314362, 0.001974,-10.375275,-0.213353,,,,,
