Type,Units,Time,X Position,Y Position,Y Encoder,Z Position,Z Encoder,Yaw,Pitch,WAFBC Drag,WAFBC Side,WAFBC Lift,WAFBC Roll,WAFBC Pitch,WAFBC Yaw,WAFMC Drag,WAFMC Side,WAFMC Lift,WAFMC Roll,WAFMC Pitch,WAFMC Yaw,BAFMC Axial,BAFMC Side,BAFMC Normal,BAFMC Roll,BAFMC Pitch,BAFMC Yaw,DPT250,DPT251,PT250,TE250,Velocity,Dynamic Pressure,Mach,Reynolds Number per ft,Velocity Setpoint,Temperature Setpoint,cDAQ AI0,cDAQ AI1,cDAQ AI2,cDAQ AI3,cDAQ AI4,cDAQ AI5,cDAQ AI6,cDAQ AI7,cRIO AI0,cRIO AI1,cRIO AI2,cRIO AI3,Drag (raw),Side (raw),Lift (raw),Roll (raw),Pitch (raw),Yaw (raw)
Type,USC / SI,Time,Inches / Millimeters,Inches / Millimeters,Inches / Millimeters,Inches / Millimeters,Inches / Millimeters,Degrees / Degrees,Degrees / Degrees,lb / N,lb / N,lb / N,ft-lb / N-m,ft-lb / N-m,ft-lb / N-m,lb / N,lb / N,lb / N,ft-lb / N-m,ft-lb / N-m,ft-lb / N-m,lb / N,lb / N,lb / N,ft-lb / N-m,ft-lb / N-m,ft-lb / N-m,PSId / Pascals,PSId / Pascals,PSIa / Pascals,F / F,Ft/s / m/s,PSId / Pascals, / ,1/ft / 1/ft,ft/s / m/s,F / F, / , / , / , / , / , / , / , / , / , / , / , / , / , / , / , / , / , / 
Sing,USC,191024 15:20:15.654, 0.000000, 0.000000, 0.000000, 0.000000, 0.000039,-9.999999, 5.000013, 4.048679,-2.915223,15.626250,-1.543825,-3.261913, 0.659044, 4.048679,-2.915223,15.626250,-1.422357,-3.093219, 0.659044, 2.105780,-3.573980,15.870173,-1.987945,-2.799236, 0.487638, 0.123955, 0.124485,14.706077,77.239097,124.872140, 0.124398, 0.109930,747342.545625,125.000000,77.238917,-0.000000,-0.000000,-0.000000,-0.000000,-0.000000,-0.000000,-0.000000,-0.000000,-10.422729,10.314362, 0.001891,-10.375275,-0.029837,,,,,
Sing,USC,191024 15:20:33.153, 0.000000, 0.000000, 0.000000, 0.000000, 0.000039,-9.999999, 3.999984, 3.756268,-2.805310,14.171537,-1.736277,-3.435346, 0.503943, 3.756268,-2.805310,14.171537,-1.619390,-3.278835, 0.503943, 2.215688,-3.414961,14.361077,-2.194032,-2.947818, 0.351751, 0.124189, 0.124737,14.705272,77.256779,125.051574, 0.124746, 0.110087,748339.565625,125.000000,77.256666,-0.000000,-0.000000,-0.000000,-0.000000,-0.000000,-0.000000,-0.000000,-0.000000,-10.422729,10.314362, 0.001905,-10.375275,-0.026757,,,,,
Sing,USC,191024 15:20:50.454, 0.000000, 0.000000, 0.000000, 0.000000, 0.000039,-9.999999, 2.999971, 3.535846,-2.797401,12.609921,-1.690174,-3.532782, 0.463621, 3.535846,-2.797401,12.609921,-1.573616,-3.385454, 0.463621, 2.332313,-3.368895,12.749456,-2.158922,-3.060766, 0.351114, 0.124228, 0.124708,14.704228,77.271180,125.056848, 0.124741, 0.110090,748267.568125,125.000000,77.271080,-0.000000,-0.000000,-0.000000,-0.000000,-0.000000,-0.000000,-0.000000,-0.000000,-10.422729,10.314362, 0.001953,-10.375275,-0.024613,,,,,
Sing,USC,191024 15:21:07.756, 0.000000, 0.000000, 0.000000, 0.000000, 0.000039,-9.999999, 1.999971, 3.343702,-2.764393,11.039442,-1.591135,-3.696021, 0.426847, 3.343702,-2.764393,11.039442,-1.475952,-3.556701, 0.426847, 2.425893,-3.303023,11.130884,-2.084779,-3.246370, 0.354305, 0.124220, 0.124735,14.702600,77.287275,125.073034, 0.124767, 0.110102,748304.098125,125.000000,77.287084,-0.000000,-0.000000,-0.000000,-0.000000,-0.000000,-0.000000,-0.000000,-0.000000,-10.422729,10.314362, 0.001865,-10.375275,-0.023160,,,,,
Sing,USC,191024 15:21:25.255, 0.000000, 0.000000, 0.000000, 0.000000, 0.000039,-9.999999, 1.000020, 3.196304,-2.758953, 9.515814,-1.451546,-3.879588, 0.418885, 3.196304,-2.758953, 9.515814,-1.336589,-3.746409, 0.418885, 2.502175,-3.272070, 9.560940,-1.973852,-3.457396, 0.384495, 0.124199, 0.124709,14.704335,77.308783,125.021092, 0.124663, 0.110054,747972.196250,125.000000,77.308692,-0.000000,-0.000000,-0.000000,-0.000000,-0.000000,-0.000000,-0.000000,-0.000000,-10.422729,10.314362, 0.001873,-10.375275,-0.022318,,,,,
Sing,USC,191024 15:21:42.653, 0.000000, 0.000000, 0.000000, 0.000000, 0.000039,-9.999999,-0.000024, 3.094498,-2.761408, 7.928476,-1.264112,-3.986861, 0.425144, 3.094498,-2.761408, 7.928476,-1.149053,-3.857923, 0.425144, 2.567976,-3.256809, 7.928475,-1.801517,-3.599782, 0.425145, 0.124169, 0.124731,14.704546,77.331088,125.020427, 0.124671, 0.110052,747999.045000,125.000000,77.330878,-0.000000,-0.000000,-0.000000,-0.000000,-0.000000,-0.000000,-0.000000,-0.000000,-10.422729,10.314362, 0.001901,-10.375275,-0.021574,,,,,
Sing,USC,191024 15:21:59.952, 0.000000, 0.000000, 0.000000, 0.000000, 0.000039,-9.999999,-1.000019, 3.028478,-2.734107, 6.369868,-1.128661,-4.151063, 0.428285, 3.028478,-2.734107, 6.369868,-1.014740,-4.024877, 0.428285, 2.618486,-3.218459, 6.325132,-1.690502,-3.787521, 0.457859, 0.124105, 0.124626,14.704689,77.355967,125.013504, 0.124644, 0.110043,747850.888750,125.000000,77.355768,-0.000000,-0.000000,-0.000000,-0.000000,-0.000000,-0.000000,-0.000000,-0.000000,-10.422729,10.314362, 0.001897,-10.375275,-0.021428,,,,,
Sing,USC,191024 15:22:17.452, 0.000000, 0.000000, 0.000000, 0.000000, 0.000039,-9.999999,-1.999988, 2.997288,-2.599126, 4.923489,-1.240443,-4.412343, 0.294093, 2.997288,-2.599126, 4.923489,-1.132147,-4.287456, 0.294093, 2.670722,-3.080114, 4.833227,-1.848059,-4.025725, 0.358807, 0.124133, 0.124614,14.706992,77.376132,125.006179, 0.124650, 0.110034,747910.898125,125.000000,77.375944,-0.000000,-0.000000,-0.000000,-0.000000,-0.000000,-0.000000,-0.000000,-0.000000,-10.422729,10.314362, 0.001931,-10.375275,-0.021757,,,,,
Sing,USC,191024 15:22:34.758, 0.000000, 0.000000, 0.000000, 0.000000, 0.000039,-9.999999,-3.000021, 3.002651,-2.609471, 3.340980,-1.100115,-4.599518, 0.336182, 3.002651,-2.609471, 3.340980,-0.991388,-4.474408, 0.336182, 2.675327,-3.091232, 3.205356,-1.733301,-4.234279, 0.427482, 0.124087, 0.124635,14.706009,77.398475,124.973746, 0.124571, 0.110004,747608.009375,125.000000,77.398345,-0.000000,-0.000000,-0.000000,-0.000000,-0.000000,-0.000000,-0.000000,-0.000000,-10.422729,10.314362, 0.001961,-10.375275,-0.022224,,,,,
Sing,USC,191024 15:22:52.155, 0.000000, 0.000000, 0.000000, 0.000000, 0.000039,-9.999999,-4.000017, 3.054723,-2.626354, 1.732907,-0.941204,-4.785077, 0.379589, 3.054723,-2.626354, 1.732907,-0.831773,-4.657797, 0.379589, 2.666918,-3.116900, 1.550649,-1.597510,-4.442599, 0.492225, 0.124036, 0.124555,14.705410,77.421922,124.954669, 0.124517, 0.109984,747371.511875,125.000000,77.421731,-0.000000,-0.000000,-0.000000,-0.000000,-0.000000,-0.000000,-0.000000,-0.000000,-10.422729,10.314362, 0.001927,-10.375275,-0.022827,,,,,
Sing,USC,191024 15:23:09.655, 0.000000, 0.000000, 0.000000, 0.000000, 0.000039,-9.999999,-4.999979, 3.103155,-2.516886, 0.085990,-0.949827,-4.936297, 0.297398, 3.103155,-2.516886, 0.085990,-0.844957,-4.806999, 0.297398, 2.616488,-3.017507,-0.142593,-1.634585,-4.587244, 0.441541, 0.124000, 0.124485,14.704367,77.446336,124.971908, 0.124541, 0.109997,747387.610625,125.000000,77.446124,-0.000000,-0.000000,-0.000000,-0.000000,-0.000000,-0.000000,-0.000000,-0.000000,-10.422729,10.314362, 0.001889,-10.375275,-0.023501,,,,,
Sing,USC,191024 15:23:26.953, 0.000000, 0.000000, 0.000000, 0.000000, 0.000039,-9.999999,-6.000027, 3.198261,-2.413413,-1.657503,-0.837188,-5.002149, 0.241152, 3.198261,-2.413413,-1.657503,-0.736629,-4.868889, 0.241152, 2.542372,-2.932119,-1.933850,-1.537099,-4.667006, 0.404037, 0.123936, 0.124464,14.704137,77.474403,124.928055, 0.124443, 0.109956,747030.413750,125.000000,77.474193,-0.000000,-0.000000,-0.000000,-0.000000,-0.000000,-0.000000,-0.000000,-0.000000,-10.422729,10.314362, 0.001897,-10.375275,-0.024491,,,,,
Sing,USC,191024 15:23:44.356, 0.000000, 0.000000, 0.000000, 0.000000, 0.000039,-9.999999,-7.000023, 3.340422,-2.396942,-3.240930,-0.687513,-5.206799, 0.278189, 3.340422,-2.396942,-3.240930,-0.587641,-5.067615, 0.278189, 2.457059,-2.940585,-3.566959,-1.413920,-4.888584, 0.453886, 0.123937, 0.124427,14.706046,77.497894,124.945637, 0.124483, 0.109969,747140.698125,125.000000,77.497690,-0.000000,-0.000000,-0.000000,-0.000000,-0.000000,-0.000000,-0.000000,-0.000000,-10.422729,10.314362, 0.001890,-10.375275,-0.025761,,,,,
Sing,USC,191024 15:24:01.858, 0.000000, 0.000000, 0.000000, 0.000000, 0.000039,-9.999999,-7.999981, 3.507792,-2.377598,-4.833071,-0.532684,-5.400092, 0.309267, 3.507792,-2.377598,-4.833071,-0.433618,-5.253934, 0.309267, 2.339402,-2.950599,-5.209348,-1.283290,-5.098818, 0.492662, 0.123991, 0.124543,14.703676,77.521214,124.967458, 0.124506, 0.109985,747123.063750,125.000000,77.521087,-0.000000,-0.000000,-0.000000,-0.000000,-0.000000,-0.000000,-0.000000,-0.000000,-10.422729,10.314362, 0.001956,-10.375275,-0.027264,,,,,
Sing,USC,191024 15:24:19.355, 0.000000, 0.000000, 0.000000, 0.000000, 0.000039,-9.999999,-9.000013, 3.711510,-2.322617,-6.510186,-0.391078,-5.586643, 0.345436, 3.711510,-2.322617,-6.510186,-0.294301,-5.431997, 0.345436, 2.193352,-2.931829,-6.938730,-1.163867,-5.298367, 0.534081, 0.123873, 0.124423,14.705679,77.545220,124.905989, 0.124396, 0.109929,746805.431250,125.000000,77.545032,-0.000000,-0.000000,-0.000000,-0.000000,-0.000000,-0.000000,-0.000000,-0.000000,-10.422729,10.314362, 0.001893,-10.375275,-0.028838,,,,,
Sing,USC,191024 15:24:36.753, 0.000000, 0.000000, 0.000000, 0.000000, 0.000039,-9.999999,-10.000012, 3.970114,-2.281585,-8.186105,-0.242150,-5.795526, 0.376595, 3.970114,-2.281585,-8.186105,-0.147083,-5.630104, 0.376595, 2.038722,-2.936325,-8.671872,-1.040057,-5.519030, 0.565796, 0.123969, 0.124489,14.705214,77.571324,124.937369, 0.124443, 0.109954,746870.440625,125.000000,77.571147,-0.000000,-0.000000,-0.000000,-0.000000,-0.000000,-0.000000,-0.000000,-0.000000,-10.422729,10.314362, 0.001870,-10.375275,-0.031032,,,,,
Sing,USC,191024 15:24:54.252, 0.000000, 0.000000, 0.000000, 0.000000, 0.000039,-9.999999,-10.999990, 4.314144,-2.231679,-9.833917,-0.094073,-6.009525, 0.412085, 4.314144,-2.231679,-9.833917,-0.001086,-5.829769, 0.412085, 1.913738,-2.946918,-10.389968,-0.916150,-5.741013, 0.597879, 0.123847, 0.124335,14.707559,77.599043,124.873967, 0.124337, 0.109895,746580.721250,125.000000,77.598786,-0.000000,-0.000000,-0.000000,-0.000000,-0.000000,-0.000000,-0.000000,-0.000000,-10.422729,10.314362, 0.001930,-10.375275,-0.033589,,,,,
Sing,USC,191024 15:25:11.553, 0.000000, 0.000000, 0.000000, 0.000000, 0.000039,-9.999999,-12.000018, 4.687048,-2.145130,-11.534068,-0.006656,-6.125688, 0.417318, 4.687048,-2.145130,-11.534068, 0.082723,-5.930394, 0.417318, 1.752545,-2.926438,-12.164263,-0.840846,-5.854663, 0.605368, 0.123769, 0.124285,14.706018,77.625557,124.857149, 0.124279, 0.109878,746304.815625,125.000000,77.625308,-0.000000,-0.000000,-0.000000,-0.000000,-0.000000,-0.000000,-0.000000,-0.000000,-10.422729,10.314362, 0.001874,-10.375275,-0.036612,,,,,
Sing,USC,191024 15:25:28.954, 0.000000, 0.000000, 0.000000, 0.000000, 0.000039,-9.999999,-13.000013, 5.055257,-2.044920,-13.201453, 0.064404,-6.187080, 0.374219, 5.055257,-2.044920,-13.201453, 0.149609,-5.976444, 0.374219, 1.535179,-2.891690,-13.903130,-0.783460,-5.911627, 0.564939, 0.123796, 0.124288,14.703774,77.653417,124.908507, 0.124361, 0.109920,746459.064375,125.000000,77.653290,-0.000000,-0.000000,-0.000000,-0.000000,-0.000000,-0.000000,-0.000000,-0.000000,-10.422729,10.314362, 0.001940,-10.375275,-0.039568,,,,,
Sing,USC,191024 15:25:46.459, 0.000000, 0.000000, 0.000000, 0.000000, 0.000039,-9.999999,-14.000010, 5.507325,-1.901928,-14.995411, 0.148566,-6.304648, 0.327279, 5.507325,-1.901928,-14.995411, 0.227813,-6.075176, 0.327279, 1.314373,-2.829371,-15.782187,-0.726743,-6.022440, 0.518496, 0.123754, 0.124296,14.704711,77.681194,124.834581, 0.124216, 0.109852,746005.314375,125.000000,77.680979,-0.000000,-0.000000,-0.000000,-0.000000,-0.000000,-0.000000,-0.000000,-0.000000,-10.422729,10.314362, 0.001900,-10.375275,-0.043056,,,,,
Sing,USC,191024 15:26:03.760, 0.000000, 0.000000, 0.000000, 0.000000, 0.000039,-9.999999,-15.000026, 5.983776,-1.733863,-16.724429, 0.299916,-6.381512, 0.275872, 5.983776,-1.733863,-16.724429, 0.372160,-6.132189, 0.275872, 1.072642,-2.746593,-17.601819,-0.603140,-6.103651, 0.447215, 0.123654, 0.124159,14.702057,77.706207,124.804053, 0.124130, 0.109823,745642.556875,125.000000,77.705975,-0.000000,-0.000000,-0.000000,-0.000000,-0.000000,-0.000000,-0.000000,-0.000000,-10.422729,10.314362, 0.001921,-10.375275,-0.047032,,,,,
Sing,USC,191024 15:26:21.156, 0.000000, 0.000000, 0.000000, 0.000000, 0.000039,-9.999999,-16.000023, 6.472850,-1.490534,-18.431327, 0.406541,-6.420419, 0.163898, 6.472850,-1.490534,-18.431327, 0.468647,-6.150717, 0.163898, 0.798403,-2.591887,-19.403040,-0.537862,-6.138653, 0.324733, 0.123584, 0.124103,14.703825,77.733238,124.784326, 0.124088, 0.109803,745480.430625,125.000000,77.733078,-0.000000,-0.000000,-0.000000,-0.000000,-0.000000,-0.000000,-0.000000,-0.000000,-10.422729,10.314362, 0.002017,-10.375275,-0.051014,,,,,
Sing,USC,191024 15:26:38.652, 0.000000, 0.000000, 0.000000, 0.000000, 0.000039,-9.999999,-16.999977, 7.108972,-1.304030,-20.206635, 0.597869,-6.569206, 0.131962, 7.108972,-1.304030,-20.206635, 0.652205,-6.272999, 0.131962, 0.570674,-2.518680,-21.304381,-0.388886,-6.290952, 0.256887, 0.123549, 0.124003,14.707653,77.757784,124.757870, 0.124065, 0.109777,745472.744375,125.000000,77.757632,-0.000000,-0.000000,-0.000000,-0.000000,-0.000000,-0.000000,-0.000000,-0.000000,-10.422729,10.314362, 0.001934,-10.375275,-0.055858,,,,,
Sing,USC,191024 15:26:56.054, 0.000000, 0.000000, 0.000000, 0.000000, 0.000039,-9.999999,-18.000013, 8.045341,-1.014940,-22.045107, 0.456130,-6.732981, 0.106232, 8.045341,-1.014940,-22.045107, 0.498419,-6.397758, 0.106232, 0.555395,-2.396579,-23.360058,-0.556934,-6.387112, 0.292657, 0.123460, 0.123899,14.706616,77.785984,124.701352, 0.123939, 0.109724,745022.393750,125.000000,77.785747,-0.000000,-0.000000,-0.000000,-0.000000,-0.000000,-0.000000,-0.000000,-0.000000,-10.422729,10.314362, 0.001963,-10.375275,-0.062199,,,,,
Sing,USC,191024 15:27:13.452, 0.000000, 0.000000, 0.000000, 0.000000, 0.000039,-9.999999,-19.000010, 8.882138,-0.828502,-23.568464, 0.206232,-6.495095, 0.067844, 8.882138,-0.828502,-23.568464, 0.240753,-6.125006, 0.067844, 0.461464,-2.358283,-25.085391,-0.759383,-6.073760, 0.333231, 0.123421, 0.123889,14.705031,77.814620,124.708657, 0.123942, 0.109728,744965.893750,125.000000,77.814315,-0.000000,-0.000000,-0.000000,-0.000000,-0.000000,-0.000000,-0.000000,-0.000000,-10.422729,10.314362, 0.001937,-10.375275,-0.068753,,,,,
Sing,USC,191024 15:27:30.955, 0.000000, 0.000000, 0.000000, 0.000000, 0.000039,-9.999999,-19.999984, 9.827006,-0.756458,-24.900342, 0.278295,-6.791531, 0.194598, 9.827006,-0.756458,-24.900342, 0.309813,-6.382072, 0.194598, 0.454228,-2.451408,-26.663713,-0.688138,-6.338912, 0.457548, 0.123420, 0.123930,14.704812,77.842550,124.715160, 0.123939, 0.109731,744878.707500,125.000000,77.842359,-0.000000,-0.000000,-0.000000,-0.000000,-0.000000,-0.000000,-0.000000,-0.000000,-10.422729,10.314362, 0.001887,-10.375275,-0.074800,,,,,
Sing,USC,191024 15:27:48.256, 0.000000, 0.000000, 0.000000, 0.000000, 0.000039,-9.999999,-21.000020,10.754576,-0.521473,-26.319619, 0.064440,-6.793545, 0.076322,10.754576,-0.521473,-26.319619, 0.086169,-6.345437, 0.076322, 0.371071,-2.381062,-28.334572,-0.922112,-6.263999, 0.435718, 0.123573, 0.124111,14.704460,77.872932,124.796674, 0.124091, 0.109799,745272.178750,125.000000,77.872648,-0.000000,-0.000000,-0.000000,-0.000000,-0.000000,-0.000000,-0.000000,-0.000000,-10.422729,10.314362, 0.001912,-10.375275,-0.081363,,,,,
Sing,USC,191024 15:28:05.654, 0.000000, 0.000000, 0.000000, 0.000000, 0.000039,-9.999999,-22.000015,11.757840,-0.356339,-27.586530,-0.058935,-6.889152, 0.003498,11.757840,-0.356339,-27.586530,-0.044087,-6.399242, 0.003498, 0.344584,-2.392652,-29.892254,-1.069247,-6.294367, 0.435777, 0.123447, 0.123904,14.706171,77.900802,124.741222, 0.123994, 0.109748,744995.119375,125.000000,77.900617,-0.000000,-0.000000,-0.000000,-0.000000,-0.000000,-0.000000,-0.000000,-0.000000,-10.422729,10.314362, 0.001939,-10.375275,-0.087821,,,,,
Sing,USC,191024 15:28:23.055, 0.000000, 0.000000, 0.000000, 0.000000, 0.000039,-9.999999,-22.999977,12.708992,-0.190302,-28.761490,-0.195909,-6.853625,-0.130661,12.708992,-0.190302,-28.761490,-0.187980,-6.324083,-0.130661, 0.252543,-2.394304,-31.352536,-1.232328,-6.195364, 0.381147, 0.123484, 0.123963,14.707786,77.927721,124.740144, 0.123993, 0.109744,744964.883750,125.000000,77.927557,-0.000000,-0.000000,-0.000000,-0.000000,-0.000000,-0.000000,-0.000000,-0.000000,-10.422729,10.314362, 0.001931,-10.375275,-0.094510,,,,,
Sing,USC,191024 15:28:40.352, 0.000000, 0.000000, 0.000000, 0.000000, 0.000039,-9.999999,-24.000021,13.699489, 0.064903,-29.760861,-0.667620,-6.772187,-0.446636,13.699489, 0.064903,-29.760861,-0.670324,-6.201376,-0.446636, 0.230424,-2.314974,-32.679915,-1.768489,-5.990762, 0.298479, 0.123345, 0.123858,14.704132,77.955026,124.702412, 0.123886, 0.109708,744521.093750,125.000000,77.954883,-0.000000,-0.000000,-0.000000,-0.000000,-0.000000,-0.000000,-0.000000,-0.000000,-10.422729,10.314362, 0.001956,-10.375275,-0.101499,,,,,
Sing,USC,191024 15:28:57.859, 0.000000, 0.000000, 0.000000, 0.000000, 0.000039,-9.999999,-25.000019,14.697361, 0.148713,-30.398652,-1.030774,-6.774639,-0.745723,14.697361, 0.148713,-30.398652,-1.036970,-6.162249,-0.745723, 0.294335,-2.405716,-33.678458,-2.210499,-5.888563, 0.207959, 0.123407, 0.123913,14.706421,77.980181,124.713382, 0.123918, 0.109715,744618.080000,125.000000,77.979896,-0.000000,-0.000000,-0.000000,-0.000000,-0.000000,-0.000000,-0.000000,-0.000000,-10.422729,10.314362, 0.001902,-10.375275,-0.108485,,,,,
Sing,USC,191024 15:29:15.358, 0.000000, 0.000000, 0.000000, 0.000000, 0.000039,-9.999999,-25.999980,15.720323, 0.017288,-30.906413,-1.159081,-6.986786,-0.838632,15.720323, 0.017288,-30.906413,-1.159802,-6.331772,-0.838632, 0.368907,-2.712780,-34.566457,-2.382443,-6.034180, 0.228931, 0.123390, 0.123948,14.705907,78.007070,124.693763, 0.123872, 0.109695,744430.955000,125.000000,78.006871,-0.000000,-0.000000,-0.000000,-0.000000,-0.000000,-0.000000,-0.000000,-0.000000,-10.422729,10.314362, 0.001946,-10.375275,-0.115172,,,,,
Sing,USC,191024 15:29:32.855, 0.000000, 0.000000, 0.000000, 0.000000, 0.000039,-9.999999,-27.000010,16.855600, 0.119163,-31.539874,-1.379497,-7.333715,-1.048341,16.855600, 0.119163,-31.539874,-1.384463,-6.631399,-1.048341, 0.489913,-2.809591,-35.647655,-2.716783,-6.290243, 0.207691, 0.123620, 0.124118,14.707314,78.033143,124.824237, 0.124133, 0.109807,745190.635000,125.000000,78.032952,-0.000000,-0.000000,-0.000000,-0.000000,-0.000000,-0.000000,-0.000000,-0.000000,-10.422729,10.314362, 0.001942,-10.375275,-0.121815,,,,,
Sing,USC,191024 15:29:50.255, 0.000000, 0.000000, 0.000000, 0.000000, 0.000039,-9.999999,-28.000012,17.706382, 0.241548,-32.164858,-1.517241,-7.238973,-1.284322,17.706382, 0.241548,-32.164858,-1.527306,-6.501207,-1.284322, 0.332836,-2.836802,-36.605930,-2.927776,-6.137226, 0.102142, 0.123478, 0.123993,14.706357,78.056750,124.762823, 0.123996, 0.109751,744707.477500,125.000000,78.056575,-0.000000,-0.000000,-0.000000,-0.000000,-0.000000,-0.000000,-0.000000,-0.000000,-10.422729,10.314362, 0.001895,-10.375275,-0.128606,,,,,
Sing,USC,191024 15:30:07.752, 0.000000, 0.000000, 0.000000, 0.000000, 0.000039,-9.999999,-28.999991,18.771430, 0.319006,-32.952376,-1.690524,-7.375820,-1.495875,18.771430, 0.319006,-32.952376,-1.703816,-6.593677,-1.495875, 0.241264,-2.945464,-37.809965,-3.194188,-6.197639, 0.060252, 0.123381, 0.123870,14.708167,78.084388,124.676549, 0.123840, 0.109672,744260.401875,125.000000,78.084205,-0.000000,-0.000000,-0.000000,-0.000000,-0.000000,-0.000000,-0.000000,-0.000000,-10.422729,10.314362, 0.001955,-10.375275,-0.136523,,,,,
Sing,USC,191024 15:30:25.059, 0.000000, 0.000000, 0.000000, 0.000000, 0.000039,-9.999999,-30.000021,19.867144, 0.250951,-33.607531,-1.740164,-7.487835,-1.628875,19.867144, 0.250951,-33.607531,-1.750621,-6.660038,-1.628875, 0.178021,-3.202754,-38.909423,-3.309048,-6.254865, 0.029618, 0.123430, 0.123927,14.708455,78.111617,124.728815, 0.123935, 0.109715,744485.866875,125.000000,78.111385,-0.000000,-0.000000,-0.000000,-0.000000,-0.000000,-0.000000,-0.000000,-0.000000,-10.422729,10.314362, 0.001933,-10.375275,-0.146614,,,,,
Sing,USC,191024 15:30:42.452, 0.000000, 0.000000, 0.000000, 0.000000, 0.000039,-9.999999,-31.000018,20.981574, 0.295828,-34.378836,-2.102330,-7.476732,-1.965138,20.981574, 0.295828,-34.378836,-2.114656,-6.602500,-1.965138, 0.049102,-3.352079,-40.137010,-3.779950,-6.134986,-0.021371, 0.123227, 0.123720,14.707401,78.139092,124.610816, 0.123693, 0.109609,743705.671250,125.000000,78.138835,-0.000000,-0.000000,-0.000000,-0.000000,-0.000000,-0.000000,-0.000000,-0.000000,-10.422729,10.314362, 0.002000,-10.375275,-0.150504,,,,,
Sing,USC,191024 15:30:59.961, 0.000000, 0.000000, 0.000000, 0.000000, 0.000039,-9.999999,-31.999980,22.110341, 0.234487,-34.894236,-2.150678,-7.594185,-2.077991,22.110341, 0.234487,-34.894236,-2.160448,-6.672921,-2.077991, 0.009186,-3.608494,-41.152260,-3.888164,-6.196387,-0.020729, 0.123208, 0.123683,14.705607,78.168005,124.628939, 0.123703, 0.109622,743629.848750,125.000000,78.167748,-0.000000,-0.000000,-0.000000,-0.000000,-0.000000,-0.000000,-0.000000,-0.000000,-10.422729,10.314362, 0.001979,-10.375275,-0.157600,,,,,
Sing,USC,191024 15:31:17.255, 0.000000, 0.000000, 0.000000, 0.000000, 0.000039,-9.999999,-33.000026,23.357655, 0.418975,-35.675542,-2.367363,-7.721454,-2.262267,23.357655, 0.418975,-35.675542,-2.384820,-6.748218,-2.262267,-0.077524,-3.643404,-42.487875,-4.184578,-6.231579, 0.020055, 0.123509, 0.123974,14.708383,78.197640,124.775900, 0.124009, 0.109748,744560.241250,125.000000,78.197383,-0.000000,-0.000000,-0.000000,-0.000000,-0.000000,-0.000000,-0.000000,-0.000000,-10.422729,10.314362, 0.001962,-10.375275,-0.166059,,,,,
Sing,USC,191024 15:31:34.659, 0.000000, 0.000000, 0.000000, 0.000000, 0.000039,-9.999999,-34.000025,24.412304, 0.545761,-36.103047,-2.458148,-7.767753,-2.399660,24.412304, 0.545761,-36.103047,-2.480888,-6.750574,-2.399660,-0.178773,-3.701683,-43.427572,-4.339194,-6.217216, 0.032313, 0.123348, 0.123836,14.708588,78.225495,124.714309, 0.123882, 0.109691,744135.723125,125.000000,78.225287,-0.000000,-0.000000,-0.000000,-0.000000,-0.000000,-0.000000,-0.000000,-0.000000,-10.422729,10.314362, 0.001875,-10.375275,-0.173558,,,,,
Sing,USC,191024 15:31:52.154, 0.000000, 0.000000, 0.000000, 0.000000, 0.000039,-9.999999,-34.997892,25.337273, 0.551896,-36.239167,-2.173106,-7.981249,-2.316452,25.337273, 0.551896,-36.239167,-2.196102,-6.925529,-2.316452,-0.266029,-3.856259,-44.052430,-4.085387,-6.438966, 0.032633, 0.123236, 0.123687,14.710456,78.254572,124.625036, 0.123717, 0.109609,743643.639375,125.000000,78.254336,-0.000000,-0.000000,-0.000000,-0.000000,-0.000000,-0.000000,-0.000000,-0.000000,-10.422729,10.314362, 0.001890,-10.375275,-0.179492,,,,,
