Type,Units,Time,X Position,Y Position,Y Encoder,Z Position,Z Encoder,Yaw,Pitch,WAFBC Drag,WAFBC Side,WAFBC Lift,WAFBC Roll,WAFBC Pitch,WAFBC Yaw,WAFMC Drag,WAFMC Side,WAFMC Lift,WAFMC Roll,WAFMC Pitch,WAFMC Yaw,BAFMC Axial,BAFMC Side,BAFMC Normal,BAFMC Roll,BAFMC Pitch,BAFMC Yaw,DPT250,DPT251,PT250,TE250,Velocity,Dynamic Pressure,Mach,Reynolds Number per ft,Velocity Setpoint,Temperature Setpoint,cDAQ AI0,cDAQ AI1,cDAQ AI2,cDAQ AI3,cDAQ AI4,cDAQ AI5,cDAQ AI6,cDAQ AI7,cRIO AI0,cRIO AI1,cRIO AI2,cRIO AI3,Drag (raw),Side (raw),Lift (raw),Roll (raw),Pitch (raw),Yaw (raw)
Type,USC / SI,Time,Inches / Millimeters,Inches / Millimeters,Inches / Millimeters,Inches / Millimeters,Inches / Millimeters,Degrees / Degrees,Degrees / Degrees,lb / N,lb / N,lb / N,ft-lb / N-m,ft-lb / N-m,ft-lb / N-m,lb / N,lb / N,lb / N,ft-lb / N-m,ft-lb / N-m,ft-lb / N-m,lb / N,lb / N,lb / N,ft-lb / N-m,ft-lb / N-m,ft-lb / N-m,PSId / Pascals,PSId / Pascals,PSIa / Pascals,F / F,Ft/s / m/s,PSId / Pascals, / ,1/ft / 1/ft,ft/s / m/s,F / F, / , / , / , / , / , / , / , / , / , / , / , / , / , / , / , / , / , / 
Sing,USC,191024 14:49:27.966, 0.000000, 0.000000, 0.000000, 0.000000, 0.000000,-9.999999, 5.000016, 1.431030,-1.177403, 5.840523,-0.294541,-1.301206, 0.460649, 1.431030,-1.177403, 5.840523,-0.245482,-1.241580, 0.460649, 0.691214,-1.408011, 5.923307,-0.495759,-1.180090, 0.419036, 0.045085, 0.045119,14.712791,74.291182,74.945255, 0.045079, 0.066159,453157.155313,75.000000,74.291113,-0.000000,-0.000000,-0.000000,-0.000000,-0.000000,-0.000000,-0.000000,-0.000000,-10.422729,10.314362, 0.001803,-10.375275,-0.012695,,,,,
Sing,USC,191024 14:49:45.167, 0.000000, 0.000000, 0.000000, 0.000000, 0.000039,-9.999999, 3.999973, 1.331857,-1.149972, 5.318241,-0.369391,-1.404071, 0.423215, 1.331857,-1.149972, 5.318241,-0.321476,-1.348577, 0.423215, 0.738245,-1.363777, 5.382850,-0.578949,-1.272266, 0.383764, 0.045197, 0.045236,14.710362,74.295069,75.048934, 0.045196, 0.066251,453703.465313,75.000000,74.295009,-0.000000,-0.000000,-0.000000,-0.000000,-0.000000,-0.000000,-0.000000,-0.000000,-10.422729,10.314362, 0.001885,-10.375275,-0.010899,,,,,
Sing,USC,191024 14:50:02.260, 0.000000, 0.000000, 0.000000, 0.000000, 0.000039,-9.999999, 2.999968, 1.237403,-1.141472, 4.744227,-0.379429,-1.405643, 0.387935, 1.237403,-1.141472, 4.744227,-0.331868,-1.354083, 0.387935, 0.770700,-1.339003, 4.791129,-0.581493,-1.275884, 0.357992, 0.045194, 0.045186,14.709000,74.299480,75.044768, 0.045188, 0.066247,453644.729063,75.000000,74.299416,-0.000000,-0.000000,-0.000000,-0.000000,-0.000000,-0.000000,-0.000000,-0.000000,-10.422729,10.314362, 0.001844,-10.375275,-0.009605,,,,,
Sing,USC,191024 14:50:19.355, 0.000000, 0.000000, 0.000000, 0.000000, 0.000039,-9.999999, 1.999973, 1.142064,-1.123448, 4.159573,-0.369628,-1.422114, 0.366856, 1.142064,-1.123448, 4.159573,-0.322818,-1.374528, 0.366856, 0.783898,-1.304698, 4.189483,-0.569063,-1.297589, 0.347208, 0.045192, 0.045196,14.710447,74.304323,75.047743, 0.045193, 0.066249,453671.163438,75.000000,74.304293,-0.000000,-0.000000,-0.000000,-0.000000,-0.000000,-0.000000,-0.000000,-0.000000,-10.422729,10.314362, 0.001860,-10.375275,-0.008802,,,,,
Sing,USC,191024 14:50:36.559, 0.000000, 0.000000, 0.000000, 0.000000, 0.000039,-9.999999, 1.000021, 1.102427,-1.067637, 3.583513,-0.401770,-1.496245, 0.298889, 1.102427,-1.067637, 3.583513,-0.357285,-1.450311, 0.298889, 0.837607,-1.242851, 3.598680,-0.608825,-1.366236, 0.288308, 0.045191, 0.045176,14.711256,74.308850,75.041484, 0.045189, 0.066243,453665.682188,75.000000,74.308833,-0.000000,-0.000000,-0.000000,-0.000000,-0.000000,-0.000000,-0.000000,-0.000000,-10.422729,10.314362, 0.001888,-10.375275,-0.008695,,,,,
Sing,USC,191024 14:50:53.858, 0.000000, 0.000000, 0.000000, 0.000000, 0.000039,-9.999999,-0.000020, 1.035756,-1.006220, 3.008235,-0.434548,-1.516367, 0.218171, 1.035756,-1.006220, 3.008235,-0.392621,-1.473211, 0.218171, 0.845294,-1.170790, 3.008235,-0.642477,-1.382651, 0.218172, 0.045161, 0.045171,14.713392,74.313633,75.015207, 0.045163, 0.066220,453563.104375,75.000000,74.313569,-0.000000,-0.000000,-0.000000,-0.000000,-0.000000,-0.000000,-0.000000,-0.000000,-10.422729,10.314362, 0.001870,-10.375275,-0.008204,,,,,
Sing,USC,191024 14:51:10.856, 0.000000, 0.000000, 0.000000, 0.000000, 0.000039,-9.999999,-1.000019, 1.020503,-0.928887, 2.451449,-0.537508,-1.617051, 0.130148, 1.020503,-0.928887, 2.451449,-0.498805,-1.574531, 0.130148, 0.886355,-1.091984, 2.436351,-0.762253,-1.463993, 0.143474, 0.045157, 0.045230,14.712423,74.318278,75.015445, 0.045158, 0.066220,453509.315000,75.000000,74.318242,-0.000000,-0.000000,-0.000000,-0.000000,-0.000000,-0.000000,-0.000000,-0.000000,-10.422729,10.314362, 0.001885,-10.375275,-0.008411,,,,,
Sing,USC,191024 14:51:27.957, 0.000000, 0.000000, 0.000000, 0.000000, 0.000039,-9.999999,-1.999986, 1.008607,-0.901156, 1.935638,-0.521901,-1.676278, 0.107425, 1.008607,-0.901156, 1.935638,-0.484353,-1.634253, 0.107425, 0.903842,-1.062609, 1.905256,-0.756567,-1.525318, 0.133910, 0.045135, 0.045158,14.715764,74.323787,74.979419, 0.045127, 0.066188,453408.363750,75.000000,74.323727,-0.000000,-0.000000,-0.000000,-0.000000,-0.000000,-0.000000,-0.000000,-0.000000,-10.422729,10.314362, 0.001859,-10.375275,-0.008858,,,,,
Sing,USC,191024 14:51:45.061, 0.000000, 0.000000, 0.000000, 0.000000, 0.000039,-9.999999,-3.000019, 0.999901,-0.935408, 1.333226,-0.430612,-1.747479, 0.145397, 0.999901,-0.935408, 1.333226,-0.391637,-1.705817, 0.145397, 0.890928,-1.094827, 1.288364,-0.673355,-1.611895, 0.180885, 0.045141, 0.045175,14.718417,74.330110,74.984788, 0.045143, 0.066192,453529.634062,75.000000,74.330046,-0.000000,-0.000000,-0.000000,-0.000000,-0.000000,-0.000000,-0.000000,-0.000000,-10.422729,10.314362, 0.001849,-10.375275,-0.009234,,,,,
Sing,USC,191024 14:52:02.162, 0.000000, 0.000000, 0.000000, 0.000000, 0.000039,-9.999999,-4.000018, 1.027695,-0.948507, 0.749459,-0.373120,-1.829194, 0.169409, 1.027695,-0.948507, 0.749459,-0.333599,-1.786373, 0.169409, 0.897591,-1.112554, 0.688523,-0.625358,-1.701305, 0.213552, 0.045114, 0.045096,14.715120,74.336689,74.971404, 0.045116, 0.066180,453336.868125,75.000000,74.336623,-0.000000,-0.000000,-0.000000,-0.000000,-0.000000,-0.000000,-0.000000,-0.000000,-10.422729,10.314362, 0.001904,-10.375275,-0.009684,,,,,
Sing,USC,191024 14:52:19.461, 0.000000, 0.000000, 0.000000, 0.000000, 0.000039,-9.999999,-4.999979, 1.040392,-0.932718, 0.151976,-0.335808,-1.870300, 0.166954, 1.040392,-0.932718, 0.151976,-0.296945,-1.826950, 0.166954, 0.872585,-1.099211, 0.076215,-0.592810,-1.747630, 0.219456, 0.045118, 0.045149,14.714378,74.343456,74.982413, 0.045123, 0.066189,453334.976562,75.000000,74.343453,-0.000000,-0.000000,-0.000000,-0.000000,-0.000000,-0.000000,-0.000000,-0.000000,-10.422729,10.314362, 0.001810,-10.375275,-0.010100,,,,,
Sing,USC,191024 14:52:36.559, 0.000000, 0.000000, 0.000000, 0.000000, 0.000039,-9.999999,-6.000029, 1.100673,-0.943259,-0.464856,-0.230056,-1.930201, 0.200911, 1.100673,-0.943259,-0.464856,-0.190753,-1.884340, 0.200911, 0.866523,-1.120058,-0.558494,-0.491245,-1.822589, 0.253650, 0.045112, 0.045082,14.712710,74.349615,74.973549, 0.045111, 0.066181,453266.199375,75.000000,74.349582,-0.000000,-0.000000,-0.000000,-0.000000,-0.000000,-0.000000,-0.000000,-0.000000,-10.422729,10.314362, 0.001886,-10.375275,-0.010814,,,,,
Sing,USC,191024 14:52:53.657, 0.000000, 0.000000, 0.000000, 0.000000, 0.000039,-9.999999,-7.000024, 1.129986,-0.934241,-1.046281,-0.176847,-2.003266, 0.220367, 1.129986,-0.934241,-1.046281,-0.137920,-1.956183, 0.220367, 0.815995,-1.116268,-1.154330,-0.445112,-1.902514, 0.276675, 0.045073, 0.045147,14.715571,74.356573,74.938186, 0.045074, 0.066149,453102.435312,75.000000,74.356523,-0.000000,-0.000000,-0.000000,-0.000000,-0.000000,-0.000000,-0.000000,-0.000000,-10.422729,10.314362, 0.001889,-10.375275,-0.011303,,,,,
Sing,USC,191024 14:53:10.952, 0.000000, 0.000000, 0.000000, 0.000000, 0.000039,-9.999999,-8.000020, 1.184006,-0.917936,-1.616580,-0.129181,-2.063984, 0.224696, 1.184006,-0.917936,-1.616580,-0.090934,-2.014650, 0.224696, 0.771839,-1.109591,-1.740942,-0.403845,-1.968253, 0.283661, 0.045093, 0.045163,14.716619,74.363614,74.954116, 0.045095, 0.066163,453216.759375,75.000000,74.363570,-0.000000,-0.000000,-0.000000,-0.000000,-0.000000,-0.000000,-0.000000,-0.000000,-10.422729,10.314362, 0.001855,-10.375275,-0.012021,,,,,
Sing,USC,191024 14:53:28.257, 0.000000, 0.000000, 0.000000, 0.000000, 0.000039,-9.999999,-9.000015, 1.262272,-0.921700,-2.245024,-0.081129,-2.137750, 0.239456, 1.262272,-0.921700,-2.245024,-0.042725,-2.085156, 0.239456, 0.718510,-1.126889,-2.386809,-0.361724,-2.046058, 0.299733, 0.045105, 0.045163,14.716034,74.371005,74.964245, 0.045104, 0.066171,453240.530000,75.000000,74.371028,-0.000000,-0.000000,-0.000000,-0.000000,-0.000000,-0.000000,-0.000000,-0.000000,-10.422729,10.314362, 0.001848,-10.375275,-0.012717,,,,,
Sing,USC,191024 14:53:45.561, 0.000000, 0.000000, 0.000000, 0.000000, 0.000039,-9.999999,-10.000012, 1.326614,-0.901337,-2.810291,-0.033264,-2.181698, 0.248046, 1.326614,-0.901337,-2.810291, 0.004293,-2.126422, 0.248046, 0.644471,-1.118008,-2.967283,-0.316403,-2.094863, 0.307664, 0.045102, 0.045080,14.715498,74.378074,74.962508, 0.045102, 0.066169,453225.381875,75.000000,74.378021,-0.000000,-0.000000,-0.000000,-0.000000,-0.000000,-0.000000,-0.000000,-0.000000,-10.422729,10.314362, 0.001846,-10.375275,-0.013580,,,,,
Sing,USC,191024 14:54:02.857, 0.000000, 0.000000, 0.000000, 0.000000, 0.000039,-9.999999,-10.999988, 1.456064,-0.868031,-3.437356, 0.026263,-2.259309, 0.253310, 1.456064,-0.868031,-3.437356, 0.062431,-2.198640, 0.253310, 0.603757,-1.107686,-3.619050,-0.266088,-2.176079, 0.309774, 0.045074, 0.045089,14.717694,74.387289,74.938983, 0.045080, 0.066148,453141.087813,75.000000,74.387226,-0.000000,-0.000000,-0.000000,-0.000000,-0.000000,-0.000000,-0.000000,-0.000000,-10.422729,10.314362, 0.001851,-10.375275,-0.014674,,,,,
Sing,USC,191024 14:54:20.059, 0.000000, 0.000000, 0.000000, 0.000000, 0.000039,-9.999999,-12.000020, 1.581916,-0.844563,-4.068441, 0.062242,-2.286005, 0.266505, 1.581916,-0.844563,-4.068441, 0.097431,-2.220091, 0.266505, 0.534510,-1.106430,-4.272947,-0.227826,-2.203282, 0.320885, 0.045023, 0.045047,14.718525,74.395228,74.888351, 0.045019, 0.066103,452830.697500,75.000000,74.395206,-0.000000,-0.000000,-0.000000,-0.000000,-0.000000,-0.000000,-0.000000,-0.000000,-10.422729,10.314362, 0.001893,-10.375275,-0.016007,,,,,
Sing,USC,191024 14:54:37.359, 0.000000, 0.000000, 0.000000, 0.000000, 0.000039,-9.999999,-13.000013, 1.721110,-0.813093,-4.702413, 0.111919,-2.307116, 0.258941, 1.721110,-0.813093,-4.702413, 0.145797,-2.235403, 0.258941, 0.456133,-1.099608,-4.931412,-0.180074,-2.226760, 0.307326, 0.045076, 0.045122,14.718076,74.402647,74.933855, 0.045071, 0.066143,453068.274375,75.000000,74.402586,-0.000000,-0.000000,-0.000000,-0.000000,-0.000000,-0.000000,-0.000000,-0.000000,-10.422729,10.314362, 0.001831,-10.375275,-0.017395,,,,,
Sing,USC,191024 14:54:54.657, 0.000000, 0.000000, 0.000000, 0.000000, 0.000039,-9.999999,-13.999983, 1.856247,-0.728905,-5.319283, 0.105640,-2.311097, 0.207305, 1.856247,-0.728905,-5.319283, 0.136012,-2.233753, 0.207305, 0.364083,-1.040165,-5.572901,-0.196247,-2.223436, 0.262581, 0.044996, 0.045063,14.717012,74.410890,74.879103, 0.045001, 0.066094,452697.033125,75.000000,74.410832,-0.000000,-0.000000,-0.000000,-0.000000,-0.000000,-0.000000,-0.000000,-0.000000,-10.422729,10.314362, 0.001867,-10.375275,-0.018724,,,,,
Sing,USC,191024 14:55:11.856, 0.000000, 0.000000, 0.000000, 0.000000, 0.000039,-9.999999,-15.000025, 2.040974,-0.661954,-5.948000, 0.156362,-2.335745, 0.186514, 2.040974,-0.661954,-5.948000, 0.183943,-2.250705, 0.186514, 0.290989,-1.006309,-6.235794,-0.154263,-2.248453, 0.234428, 0.045008, 0.045099,14.715560,74.419263,74.897141, 0.045018, 0.066109,452753.728438,75.000000,74.419194,-0.000000,-0.000000,-0.000000,-0.000000,-0.000000,-0.000000,-0.000000,-0.000000,-10.422729,10.314362, 0.001897,-10.375275,-0.020703,,,,,
Sing,USC,191024 14:55:28.955, 0.000000, 0.000000, 0.000000, 0.000000, 0.000039,-9.999999,-16.000025, 2.238929,-0.557271,-6.537356, 0.119029,-2.359646, 0.125847, 2.238929,-0.557271,-6.537356, 0.142249,-2.266358, 0.125847, 0.224537,-0.937590,-6.865194,-0.208955,-2.256628, 0.190835, 0.044913, 0.044925,14.712740,74.426969,74.814574, 0.044912, 0.066036,452174.178438,75.000000,74.426956,-0.000000,-0.000000,-0.000000,-0.000000,-0.000000,-0.000000,-0.000000,-0.000000,-10.422729,10.314362, 0.001883,-10.375275,-0.022682,,,,,
Sing,USC,191024 14:55:46.255, 0.000000, 0.000000, 0.000000, 0.000000, 0.000039,-9.999999,-17.000021, 2.543062,-0.499789,-7.215105, 0.096575,-2.380646, 0.116393, 2.543062,-0.499789,-7.215105, 0.117400,-2.274685, 0.116393, 0.202505,-0.933795,-7.606690,-0.233141,-2.260513, 0.192990, 0.044986, 0.044994,14.712552,74.435303,74.880674, 0.044988, 0.066094,452539.197188,75.000000,74.435256,-0.000000,-0.000000,-0.000000,-0.000000,-0.000000,-0.000000,-0.000000,-0.000000,-10.422729,10.314362, 0.001880,-10.375275,-0.025249,,,,,
Sing,USC,191024 14:56:03.560, 0.000000, 0.000000, 0.000000, 0.000000, 0.000039,-9.999999,-18.000015, 2.874659,-0.417331,-7.872201, 0.050133,-2.405724, 0.107239, 2.874659,-0.417331,-7.872201, 0.067522,-2.285945, 0.107239, 0.190860,-0.910170,-8.339337,-0.281142,-2.262942, 0.204106, 0.044892, 0.044911,14.714685,74.443038,74.796693, 0.044892, 0.066019,452077.265313,75.000000,74.443005,-0.000000,-0.000000,-0.000000,-0.000000,-0.000000,-0.000000,-0.000000,-0.000000,-10.422729,10.314362, 0.001906,-10.375275,-0.027482,,,,,
Sing,USC,191024 14:56:20.856, 0.000000, 0.000000, 0.000000, 0.000000, 0.000039,-9.999999,-19.000014, 3.130757,-0.351467,-8.406454,-0.025727,-2.385349, 0.069915, 3.130757,-0.351467,-8.406454,-0.011083,-2.254901, 0.069915, 0.120635,-0.889777,-8.932379,-0.357784,-2.218720, 0.197139, 0.044995, 0.045032,14.715786,74.451681,74.872517, 0.044988, 0.066085,452578.136875,75.000000,74.451645,-0.000000,-0.000000,-0.000000,-0.000000,-0.000000,-0.000000,-0.000000,-0.000000,-10.422729,10.314362, 0.001843,-10.375275,-0.030118,,,,,
Sing,USC,191024 14:56:38.156, 0.000000, 0.000000, 0.000000, 0.000000, 0.000039,-9.999999,-19.999984, 3.537569,-0.315657,-8.921884,-0.005365,-2.570346, 0.116430, 3.537569,-0.315657,-8.921884, 0.007787,-2.422946, 0.116430, 0.170756,-0.925154,-9.556620,-0.348339,-2.387489, 0.250688, 0.044987, 0.044989,14.716092,74.460162,74.876689, 0.044992, 0.066089,452585.930312,75.000000,74.460131,-0.000000,-0.000000,-0.000000,-0.000000,-0.000000,-0.000000,-0.000000,-0.000000,-10.422729,10.314362, 0.001883,-10.375275,-0.032545,,,,,
Sing,USC,191024 14:56:55.359, 0.000000, 0.000000, 0.000000, 0.000000, 0.000039,-9.999999,-21.000018, 3.905928,-0.265243,-9.433036, 0.044304,-2.713395, 0.151183, 3.905928,-0.265243,-9.433036, 0.055356,-2.550648, 0.151183, 0.167599,-0.939470,-10.168485,-0.308423,-2.521510, 0.280331, 0.044911, 0.044925,14.716365,74.468692,74.812333, 0.044918, 0.066031,452225.814375,75.000000,74.468670,-0.000000,-0.000000,-0.000000,-0.000000,-0.000000,-0.000000,-0.000000,-0.000000,-10.422729,10.314362, 0.001841,-10.375275,-0.035324,,,,,
Sing,USC,191024 14:57:12.655, 0.000000, 0.000000, 0.000000, 0.000000, 0.000039,-9.999999,-22.000017, 4.222128,-0.249415,-9.902121, 0.123072,-2.679222, 0.177435, 4.222128,-0.249415,-9.902121, 0.133464,-2.503300, 0.177435, 0.105656,-0.978790,-10.722470,-0.214706,-2.488445, 0.278117, 0.044934, 0.044932,14.714787,74.476230,74.830706, 0.044933, 0.066047,452262.066875,75.000000,74.476227,-0.000000,-0.000000,-0.000000,-0.000000,-0.000000,-0.000000,-0.000000,-0.000000,-10.422729,10.314362, 0.001858,-10.375275,-0.037152,,,,,
Sing,USC,191024 14:57:29.758, 0.000000, 0.000000, 0.000000, 0.000000, 0.000039,-9.999999,-22.999974, 4.551080,-0.257715,-10.323397, 0.187387,-2.665650, 0.214634, 4.551080,-0.257715,-10.323397, 0.198124,-2.476022, 0.214634, 0.050785,-1.044086,-11.236484,-0.132309,-2.472810, 0.289332, 0.045022, 0.045037,14.713632,74.485250,74.905243, 0.045017, 0.066112,452642.806875,75.000000,74.485189,-0.000000,-0.000000,-0.000000,-0.000000,-0.000000,-0.000000,-0.000000,-0.000000,-10.422729,10.314362, 0.001856,-10.375275,-0.039641,,,,,
Sing,USC,191024 14:57:46.954, 0.000000, 0.000000, 0.000000, 0.000000, 0.000039,-9.999999,-24.000029, 4.951308,-0.133364,-10.720415,-0.023615,-2.721135, 0.078779, 4.951308,-0.133364,-10.720415,-0.018058,-2.514831, 0.078779, 0.072978,-0.991123,-11.767450,-0.383145,-2.473489, 0.256821, 0.044912, 0.045002,14.713465,74.494076,74.823609, 0.044915, 0.066040,452108.863438,75.000000,74.494009,-0.000000,-0.000000,-0.000000,-0.000000,-0.000000,-0.000000,-0.000000,-0.000000,-10.422729,10.314362, 0.001873,-10.375275,-0.042657,,,,,
Sing,USC,191024 14:58:04.056, 0.000000, 0.000000, 0.000000, 0.000000, 0.000039,-9.999999,-25.000026, 5.257805,-0.198198,-10.908855, 0.012283,-2.650995, 0.047888, 5.257805,-0.198198,-10.908855, 0.020541,-2.431920, 0.047888, 0.051317,-1.108195,-12.060522,-0.344160,-2.398540, 0.213323, 0.044981, 0.045082,14.711042,74.501199,74.883150, 0.044985, 0.066092,452444.162500,75.000000,74.501183,-0.000000,-0.000000,-0.000000,-0.000000,-0.000000,-0.000000,-0.000000,-0.000000,-10.422729,10.314362, 0.001852,-10.375275,-0.044998,,,,,
Sing,USC,191024 14:58:21.353, 0.000000, 0.000000, 0.000000, 0.000000, 0.000039,-9.999999,-26.000022, 5.584870,-0.293051,-10.968898, 0.025028,-2.703409, 0.029456, 5.584870,-0.293051,-10.968898, 0.037238,-2.470706, 0.029456, 0.089197,-1.258402,-12.247525,-0.339739,-2.439637, 0.198474, 0.044890, 0.044975,14.712409,74.509423,74.803898, 0.044888, 0.066021,451950.556563,75.000000,74.509428,-0.000000,-0.000000,-0.000000,-0.000000,-0.000000,-0.000000,-0.000000,-0.000000,-10.422729,10.314362, 0.001850,-10.375275,-0.047046,,,,,
Sing,USC,191024 14:58:38.656, 0.000000, 0.000000, 0.000000, 0.000000, 0.000039,-9.999999,-27.000013, 5.975628,-0.202946,-11.274768,-0.130822,-2.783857,-0.095854, 5.975628,-0.202946,-11.274768,-0.122367,-2.534873,-0.095854, 0.093395,-1.237520,-12.701557,-0.543090,-2.475114, 0.169139, 0.044927, 0.044995,14.712226,74.516431,74.838408, 0.044931, 0.066051,452166.137500,75.000000,74.516397,-0.000000,-0.000000,-0.000000,-0.000000,-0.000000,-0.000000,-0.000000,-0.000000,-10.422729,10.314362, 0.001845,-10.375275,-0.048709,,,,,
Sing,USC,191024 14:58:55.754, 0.000000, 0.000000, 0.000000, 0.000000, 0.000039,-9.999999,-28.000015, 6.258851,-0.172325,-11.530886,-0.139207,-2.707392,-0.181549, 6.258851,-0.172325,-11.530886,-0.132027,-2.446606,-0.181549, 0.002435,-1.256545,-13.060832,-0.575154,-2.386511, 0.100197, 0.044917, 0.044958,14.712807,74.524079,74.830752, 0.044920, 0.066044,452095.913125,75.000000,74.524079,-0.000000,-0.000000,-0.000000,-0.000000,-0.000000,-0.000000,-0.000000,-0.000000,-10.422729,10.314362, 0.001845,-10.375275,-0.051681,,,,,
Sing,USC,191024 14:59:13.056, 0.000000, 0.000000, 0.000000, 0.000000, 0.000039,-9.999999,-28.999985, 6.806218,-0.099696,-11.834090,-0.336508,-3.041774,-0.297605, 6.806218,-0.099696,-11.834090,-0.332355,-2.758182,-0.297605, 0.109996,-1.280068,-13.591525,-0.849451,-2.658566, 0.130590, 0.044834, 0.044892,14.715435,74.530521,74.749209, 0.044832, 0.065972,451694.300312,75.000000,74.530460,-0.000000,-0.000000,-0.000000,-0.000000,-0.000000,-0.000000,-0.000000,-0.000000,-10.422729,10.314362, 0.001912,-10.375275,-0.056117,,,,,
Sing,USC,191024 14:59:30.259, 0.000000, 0.000000, 0.000000, 0.000000, 0.000039,-9.999999,-30.000023, 7.313352,-0.140371,-12.260845,-0.216515,-3.149588,-0.252528, 7.313352,-0.140371,-12.260845,-0.210666,-2.844865,-0.252528, 0.085789,-1.408189,-14.207138,-0.733756,-2.765064, 0.132040, 0.044858, 0.044888,14.715240,74.537655,74.771469, 0.044859, 0.065991,451829.786875,75.000000,74.537609,-0.000000,-0.000000,-0.000000,-0.000000,-0.000000,-0.000000,-0.000000,-0.000000,-10.422729,10.314362, 0.001867,-10.375275,-0.062295,,,,,
Sing,USC,191024 14:59:47.555, 0.000000, 0.000000, 0.000000, 0.000000, 0.000039,-9.999999,-31.000019, 7.485375, 0.009951,-12.440255,-0.536143,-2.806402,-0.507092, 7.485375, 0.009951,-12.440255,-0.536558,-2.494511,-0.507092,-0.086986,-1.290023,-14.460953,-1.085401,-2.363441, 0.060585, 0.044689, 0.044726,14.714405,74.544633,74.631609, 0.044687, 0.065867,450932.532187,75.000000,74.544602,-0.000000,-0.000000,-0.000000,-0.000000,-0.000000,-0.000000,-0.000000,-0.000000,-10.422729,10.314362, 0.001864,-10.375275,-0.059906,,,,,
Sing,USC,191024 15:00:04.856, 0.000000, 0.000000, 0.000000, 0.000000, 0.000039,-9.999999,-31.999976, 8.029852,-0.042190,-12.810985,-0.457117,-3.003871,-0.483858, 8.029852,-0.042190,-12.810985,-0.455359,-2.669294,-0.483858,-0.088748,-1.435917,-15.050976,-1.029790,-2.549669, 0.072930, 0.045004, 0.045000,14.714454,74.552304,74.896999, 0.045005, 0.066101,452535.938437,75.000000,74.552251,-0.000000,-0.000000,-0.000000,-0.000000,-0.000000,-0.000000,-0.000000,-0.000000,-10.422729,10.314362, 0.001815,-10.375275,-0.063100,,,,,
Sing,USC,191024 15:00:21.959, 0.000000, 0.000000, 0.000000, 0.000000, 0.000039,-9.999999,-33.000029, 8.473257, 0.028970,-13.029941,-0.598643,-3.031466,-0.597608, 8.473257, 0.028970,-13.029941,-0.599850,-2.678413,-0.597608,-0.094092,-1.442836,-15.475324,-1.210981,-2.533560, 0.073855, 0.044711, 0.044751,14.714401,74.559375,74.649395, 0.044705, 0.065882,450997.493750,75.000000,74.559359,-0.000000,-0.000000,-0.000000,-0.000000,-0.000000,-0.000000,-0.000000,-0.000000,-10.422729,10.314362, 0.001878,-10.375275,-0.066150,,,,,
Sing,USC,191024 15:00:39.254, 0.000000, 0.000000, 0.000000, 0.000000, 0.000039,-9.999999,-34.000027, 8.932028, 0.151356,-13.276919,-0.791245,-3.039944,-0.755229, 8.932028, 0.151356,-13.276919,-0.797551,-2.667776,-0.755229,-0.110089,-1.401975,-15.940608,-1.457528,-2.488754, 0.072146, 0.044823, 0.044890,14.713705,74.567715,74.746505, 0.044822, 0.065967,451585.644375,75.000000,74.567693,-0.000000,-0.000000,-0.000000,-0.000000,-0.000000,-0.000000,-0.000000,-0.000000,-10.422729,10.314362, 0.001859,-10.375275,-0.069661,,,,,
Sing,USC,191024 15:00:56.354, 0.000000, 0.000000, 0.000000, 0.000000, 0.000039,-9.999999,-34.998519, 9.391843,-0.022422,-13.445151,-0.366459,-3.236667,-0.554408, 9.391843,-0.022422,-13.445151,-0.365525,-2.845340,-0.554408,-0.138117,-1.652958,-16.316490,-1.017600,-2.738641, 0.035706, 0.044912, 0.044947,14.712339,74.576477,74.821379, 0.044907, 0.066032,451981.190625,75.000000,74.576428,-0.000000,-0.000000,-0.000000,-0.000000,-0.000000,-0.000000,-0.000000,-0.000000,-10.422729,10.314362, 0.001897,-10.375275,-0.072442,,,,,
